$GPRMC,170516.40,A,3700.04723,N,12203.77924,W,0.569,,230413,,,D*61
$GPGGA,170516.40,3700.04723,N,12203.77924,W,2,06,3.09,258.2,M,-30.6,M,,0000*6F
$GPGSV,3,1,09,01,55,273,32,11,42,235,28,25,09,053,,27,10,127,27*71
$GPGSV,3,2,09,30,11,144,21,31,66,096,34,32,59,324,39,46,41,142,33*78
$GPGSV,3,3,09,51,44,156,39*4C
$GPRMC,170516.60,A,3700.04714,N,12203.77929,W,0.586,,230413,,,D*6B
$GPGGA,170516.60,3700.04714,N,12203.77929,W,2,06,3.09,258.5,M,-30.6,M,,0000*63
$GPGSV,3,1,09,01,55,273,32,11,42,235,29,25,09,053,,27,10,127,27*70
$GPGSV,3,2,09,30,11,144,21,31,66,096,34,32,59,324,40,46,41,142,33*76
$GPGSV,3,3,09,51,44,156,40*42
$GPRMC,170516.80,A,3700.04715,N,12203.77930,W,0.209,,230413,,,D*6C
$GPGGA,170516.80,3700.04715,N,12203.77930,W,2,06,3.09,258.5,M,-30.6,M,,0000*64
$GPGSV,3,1,09,01,55,273,32,11,42,235,28,25,09,053,,27,10,127,27*71
$GPGSV,3,2,09,30,11,144,21,31,66,096,31,32,59,324,36,46,41,142,30*71
$GPGSV,3,3,09,51,44,156,35*40
$GPRMC,170517.00,A,3700.04713,N,12203.77933,W,1.159,,230413,,,D*67
$GPGGA,170517.00,3700.04713,N,12203.77933,W,2,06,3.09,258.4,M,-30.6,M,,0000*69
$GPGSV,3,1,09,01,55,273,32,11,42,235,29,25,09,053,,27,10,127,27*70
$GPGSV,3,2,09,30,11,144,22,31,66,096,32,32,59,324,36,46,41,142,31*70
$GPGSV,3,3,09,51,44,156,36*43
$GPRMC,170517.20,A,3700.04712,N,12203.77933,W,0.813,,230413,,,D*62
$GPGGA,170517.20,3700.04712,N,12203.77933,W,2,06,3.09,258.1,M,-30.6,M,,0000*6F
$GPGSV,3,1,09,01,55,273,27,11,42,235,28,25,09,053,,27,10,127,27*75
$GPGSV,3,2,09,30,11,144,21,31,66,096,31,32,59,324,34,46,41,142,31*72
$GPGSV,3,3,09,51,44,156,34*41
$GPRMC,170517.40,A,3700.04706,N,12203.77940,W,2.380,175.56,230413,,,D*78
$GPGGA,170517.40,3700.04706,N,12203.77940,W,2,06,3.09,258.0,M,-30.6,M,,0000*69
$GPGSV,3,1,09,01,55,273,27,11,42,235,28,25,09,053,,27,10,127,26*74
$GPGSV,3,2,09,30,11,144,21,31,66,096,31,32,59,324,34,46,41,142,30*73
$GPGSV,3,3,09,51,44,156,34*41
$GPRMC,170517.60,A,3700.04699,N,12203.77947,W,0.416,,230413,,,D*6E
$GPGGA,170517.60,3700.04699,N,12203.77947,W,2,06,3.09,258.3,M,-30.6,M,,0000*68
$GPGSV,3,1,09,01,55,273,28,11,42,235,28,25,09,053,,27,10,127,26*7B
$GPGSV,3,2,09,30,11,144,21,31,66,096,31,32,59,324,34,46,41,142,30*73
$GPGSV,3,3,09,51,44,156,37*42
$GPRMC,170517.80,A,3700.04687,N,12203.77950,W,0.111,,230413,,,D*6B
$GPGGA,170517.80,3700.04687,N,12203.77950,W,2,06,3.09,258.8,M,-30.6,M,,0000*64
$GPGSV,3,1,09,01,55,273,33,11,42,235,28,25,09,053,,27,10,127,27*70
$GPGSV,3,2,09,30,11,144,22,31,66,096,35,32,59,324,41,46,41,142,35*73
$GPGSV,3,3,09,51,44,156,41*43
$GPRMC,170518.00,A,3700.04674,N,12203.77952,W,0.105,,230413,,,D*67
$GPGGA,170518.00,3700.04674,N,12203.77952,W,2,06,3.09,259.2,M,-30.6,M,,0000*66
$GPGSV,3,1,09,01,55,273,36,11,42,235,29,25,09,053,,27,10,127,27*74
$GPGSV,3,2,09,30,11,144,22,31,66,096,35,32,59,324,41,46,41,142,35*73
$GPGSV,3,3,09,51,44,156,42*40
$GPRMC,170518.20,A,3700.04673,N,12203.77949,W,0.441,,230413,,,D*6D
$GPGGA,170518.20,3700.04673,N,12203.77949,W,2,06,3.09,259.1,M,-30.6,M,,0000*6A
$GPGSV,3,1,09,01,55,273,36,11,42,235,29,25,09,053,,27,10,127,28*7B
$GPGSV,3,2,09,30,11,144,22,31,66,096,35,32,59,324,40,46,41,142,35*72
$GPGSV,3,3,09,51,44,156,41*43
$GPRMC,170518.40,A,3700.04669,N,12203.77949,W,0.336,,230413,,,D*67
$GPGGA,170518.40,3700.04669,N,12203.77949,W,2,06,3.09,259.3,M,-30.6,M,,0000*65
$GPGSV,3,1,09,01,55,273,32,11,42,235,28,25,09,053,,27,10,127,27*71
$GPGSV,3,2,09,30,11,144,22,31,66,096,35,32,59,324,38,46,41,142,34*7C
$GPGSV,3,3,09,51,44,156,40*42
$GPRMC,170518.60,A,3700.04660,N,12203.77948,W,0.282,,230413,,,D*63
$GPGGA,170518.60,3700.04660,N,12203.77948,W,2,06,3.09,259.6,M,-30.6,M,,0000*6A
$GPGSV,3,1,09,01,55,273,35,11,42,235,29,25,09,053,,27,10,127,27*77
$GPGSV,3,2,09,30,11,144,22,31,66,096,37,32,59,324,41,46,41,142,35*71
$GPGSV,3,3,09,51,44,156,42*40
$GPRMC,170518.80,A,3700.04647,N,12203.77949,W,0.411,,230413,,,D*65
$GPGGA,170518.80,3700.04647,N,12203.77949,W,2,06,3.09,260.2,M,-30.6,M,,0000*6E
$GPGSV,3,1,09,01,55,273,35,11,42,235,29,25,09,053,,27,10,127,27*77
$GPGSV,3,2,09,30,11,144,23,31,66,096,37,32,59,324,41,46,41,142,35*70
$GPGSV,3,3,09,51,44,156,42*40
$GPRMC,170519.00,A,3700.04641,N,12203.77945,W,0.420,,230413,,,D*64
$GPGGA,170519.00,3700.04641,N,12203.77945,W,2,06,3.09,260.3,M,-30.6,M,,0000*6C
$GPGSV,3,1,09,01,55,273,35,11,42,235,29,25,09,053,,27,10,127,27*77
$GPGSV,3,2,09,30,11,144,23,31,66,096,36,32,59,324,40,46,41,142,35*70
$GPGSV,3,3,09,51,44,156,42*40
$GPRMC,170519.20,A,3700.04637,N,12203.77946,W,0.753,,230413,,,D*63
$GPGGA,170519.20,3700.04637,N,12203.77946,W,2,06,3.09,260.6,M,-30.6,M,,0000*69
$GPGSV,3,1,09,01,55,273,31,11,42,235,29,25,09,053,,27,10,127,27*73
$GPGSV,3,2,09,30,11,144,23,31,66,096,33,32,59,324,36,46,41,142,32*73
$GPGSV,3,3,09,51,44,156,39*4C
$GPRMC,170519.40,A,3700.04643,N,12203.77940,W,0.504,,230413,,,D*60
$GPGGA,170519.40,3700.04643,N,12203.77940,W,2,06,3.09,260.0,M,-30.6,M,,0000*6C
$GPGSV,3,1,09,01,55,273,32,11,42,235,29,25,09,053,,27,10,127,27*70
$GPGSV,3,2,09,30,11,144,22,31,66,096,33,32,59,324,36,46,41,142,31*71
$GPGSV,3,3,09,51,44,156,37*42
$GPRMC,170519.60,A,3700.04632,N,12203.77943,W,0.839,,230413,,,D*64
$GPGGA,170519.60,3700.04632,N,12203.77943,W,2,06,3.09,260.5,M,-30.6,M,,0000*6E
$GPGSV,3,1,11,01,55,273,32,11,42,235,29,12,,,25,18,,,27*7C
$GPGSV,3,2,11,25,09,053,,27,10,127,27,30,11,144,22,31,66,096,36*7F
$GPGSV,3,3,11,32,59,324,40,46,41,142,35,51,44,156,40*41
$GPRMC,170519.80,A,3700.04622,N,12203.77948,W,0.604,,230413,,,D*60
$GPGGA,170519.80,3700.04622,N,12203.77948,W,2,06,3.09,260.9,M,-30.6,M,,0000*66
$GPGSV,3,1,12,01,55,273,35,11,42,235,29,12,,,24,18,,,26*78
$GPGSV,3,2,12,20,,,27,25,09,053,,27,10,127,27,30,11,144,23*42
$GPGSV,3,3,12,31,66,096,36,32,59,324,41,46,41,142,35,51,44,156,42*79
$GPRMC,170520.00,A,3700.04617,N,12203.77948,W,0.393,,230413,,,D*6F
$GPGGA,170520.00,3700.04617,N,12203.77948,W,2,06,3.09,261.0,M,-30.6,M,,0000*6A
$GPGSV,4,1,13,01,55,273,35,11,42,235,30,12,,,24,18,,,26*76
$GPGSV,4,2,13,20,,,26,23,,,24,25,09,053,,27,10,127,27*71
$GPGSV,4,3,13,30,11,144,24,31,66,096,36,32,59,324,40,46,41,142,35*7A
$GPGSV,4,4,13,51,44,156,42*4B
$GPRMC,170520.20,A,3700.04615,N,12203.77947,W,0.563,,230413,,,D*69
$GPGGA,170520.20,3700.04615,N,12203.77947,W,2,06,3.09,261.0,M,-30.6,M,,0000*65
$GPGSV,4,1,13,01,55,273,34,11,42,235,29,12,,,23,18,,,25*7B
$GPGSV,4,2,13,20,,,25,23,,,24,25,09,053,,27,10,127,27*72
$GPGSV,4,3,13,30,11,144,23,31,66,096,35,32,59,324,39,46,41,142,34*71
$GPGSV,4,4,13,51,44,156,41*48
$GPRMC,170520.40,A,3700.04611,N,12203.77948,W,0.149,,230413,,,D*68
$GPGGA,170520.40,3700.04611,N,12203.77948,W,2,06,3.09,261.3,M,-30.6,M,,0000*6B
$GPGSV,4,1,13,01,55,273,34,11,42,235,29,12,,,23,18,,,24*7A
$GPGSV,4,2,13,20,,,25,23,,,23,25,09,053,,27,10,127,27*75
$GPGSV,4,3,13,30,11,144,23,31,66,096,35,32,59,324,37,46,41,142,34*7F
$GPGSV,4,4,13,51,44,156,39*47
$GPRMC,170520.60,A,3700.04611,N,12203.77946,W,0.901,,230413,,,D*60
$GPGGA,170520.60,3700.04611,N,12203.77946,W,2,06,3.09,261.1,M,-30.6,M,,0000*65
$GPGSV,4,1,13,01,55,273,34,11,42,235,29,12,,,22,18,,,24*7B
$GPGSV,4,2,13,20,,,25,23,,,23,25,09,053,,27,10,127,27*75
$GPGSV,4,3,13,30,11,144,23,31,66,096,35,32,59,324,38,46,41,142,33*77
$GPGSV,4,4,13,51,44,156,41*48
$GPRMC,170520.80,A,3700.04605,N,12203.77947,W,0.178,,230413,,,D*6C
$GPGGA,170520.80,3700.04605,N,12203.77947,W,2,06,3.09,261.4,M,-30.6,M,,0000*6A
$GPGSV,4,1,13,01,55,273,34,11,42,235,29,12,,,22,18,,,24*7B
$GPGSV,4,2,13,20,,,24,23,,,22,25,09,053,,27,10,127,27*75
$GPGSV,4,3,13,30,11,144,23,31,66,096,35,32,59,324,39,46,41,142,33*76
$GPGSV,4,4,13,51,44,156,41*48
$GPRMC,170521.00,A,3700.04598,N,12203.77948,W,0.524,,230413,,,D*60
$GPGGA,170521.00,3700.04598,N,12203.77948,W,2,07,3.09,261.7,M,-30.6,M,,0000*69
$GPGSV,4,1,13,01,55,273,34,11,42,235,29,12,,,22,18,,,23*7C
$GPGSV,4,2,13,20,,,24,23,,,22,25,09,053,23,27,10,127,27*74
$GPGSV,4,3,13,30,11,144,24,31,66,096,35,32,59,324,40,46,41,142,34*78
$GPGSV,4,4,13,51,44,156,41*48
$GPRMC,170521.20,A,3700.04586,N,12203.77956,W,1.718,205.48,230413,,,D*7B
$GPGGA,170521.20,3700.04586,N,12203.77956,W,2,07,3.09,262.3,M,-30.6,M,,0000*6C
$GPGSV,4,1,13,01,55,273,34,11,42,235,29,12,,,21,18,,,23*7F
$GPGSV,4,2,13,20,,,23,23,,,21,25,09,053,22,27,10,127,27*71
$GPGSV,4,3,13,30,11,144,24,31,66,096,35,32,59,324,39,46,41,142,34*76
$GPGSV,4,4,13,51,44,156,41*48
$GPRMC,170521.40,A,3700.04579,N,12203.77967,W,2.323,223.82,230413,,,D*72
$GPGGA,170521.40,3700.04579,N,12203.77967,W,2,07,3.09,262.5,M,-30.6,M,,0000*6E
$GPGSV,4,1,13,01,55,273,30,11,42,235,29,12,,,21,18,,,23*7B
$GPGSV,4,2,13,20,,,23,23,,,20,25,09,053,21,27,10,127,27*73
$GPGSV,4,3,13,30,11,144,24,31,66,096,32,32,59,324,37,46,41,142,33*78
$GPGSV,4,4,13,51,44,156,36*48
$GPRMC,170521.60,A,3700.04561,N,12203.77978,W,0.796,,230413,,,D*68
$GPGGA,170521.60,3700.04561,N,12203.77978,W,2,07,3.09,263.2,M,-30.6,M,,0000*6D
$GPGSV,4,1,13,01,55,273,34,11,42,235,29,12,,,21,18,,,23*7F
$GPGSV,4,2,13,20,,,23,23,,,19,25,09,053,21,27,10,127,27*79
$GPGSV,4,3,13,30,11,144,24,31,66,096,35,32,59,324,41,46,41,142,34*79
$GPGSV,4,4,13,51,44,156,40*49
$GPRMC,170521.80,A,3700.04551,N,12203.77980,W,0.447,,230413,,,D*6D
$GPGGA,170521.80,3700.04551,N,12203.77980,W,2,07,3.09,263.5,M,-30.6,M,,0000*60
$GPGSV,4,1,13,01,55,273,34,11,42,235,29,12,,,21,18,,,22*7E
$GPGSV,4,2,13,20,,,22,23,,,19,25,09,053,20,27,10,127,27*79
$GPGSV,4,3,13,30,11,144,24,31,66,096,35,32,59,324,40,46,41,142,34*78
$GPGSV,4,4,13,51,44,156,40*49
$GPRMC,170522.00,A,3700.04551,N,12203.77979,W,0.140,,230413,,,D*62
$GPGGA,170522.00,3700.04551,N,12203.77979,W,2,07,3.09,263.6,M,-30.6,M,,0000*6E
$GPGSV,4,1,14,01,55,273,30,11,42,235,28,12,,,20,18,,,22*7D
$GPGSV,4,2,14,20,,,22,22,,,25,23,,,18,25,09,053,19*47
$GPGSV,4,3,14,27,10,127,27,30,11,144,23,31,66,096,32,32,59,324,35*7F
$GPGSV,4,4,14,46,41,142,30,51,44,156,37*7D
$GPRMC,170522.20,A,3700.04545,N,12203.77980,W,0.611,,230413,,,D*60
$GPGGA,170522.20,3700.04545,N,12203.77980,W,2,07,3.09,263.9,M,-30.6,M,,0000*60
$GPGSV,4,1,14,01,55,273,34,11,42,235,28,12,,,19,18,,,21*70
$GPGSV,4,2,14,20,,,22,22,,,24,23,,,17,25,09,053,18*48
$GPGSV,4,3,14,27,10,127,27,30,11,144,23,31,66,096,35,32,59,324,39*74
$GPGSV,4,4,14,46,41,142,34,51,44,156,39*77
$GPRMC,170522.40,A,3700.04536,N,12203.77981,W,0.299,,230413,,,D*67
$GPGGA,170522.40,3700.04536,N,12203.77981,W,2,07,3.09,264.4,M,-30.6,M,,0000*69
$GPGSV,4,1,14,01,55,273,34,11,42,235,28,12,,,19,18,,,20*71
$GPGSV,4,2,14,20,,,21,22,,,23,23,,,17,25,09,053,17*43
$GPGSV,4,3,14,27,10,127,27,30,11,144,23,31,66,096,35,32,59,324,39*74
$GPGSV,4,4,14,46,41,142,34,51,44,156,39*77
$GPRMC,170522.60,A,3700.04529,N,12203.77982,W,1.020,,230413,,,D*69
$GPGGA,170522.60,3700.04529,N,12203.77982,W,2,07,3.09,264.6,M,-30.6,M,,0000*64
$GPGSV,4,1,13,01,55,273,33,11,42,235,29,18,,,19,20,,,20*71
$GPGSV,4,2,13,22,,,23,23,,,16,25,09,053,17,27,10,127,28*7E
$GPGSV,4,3,13,30,11,144,23,31,66,096,36,32,59,324,40,46,41,142,34*7C
$GPGSV,4,4,13,51,44,156,38*46
$GPRMC,170522.80,A,3700.04522,N,12203.77986,W,0.643,,230413,,,D*6A
$GPGGA,170522.80,3700.04522,N,12203.77986,W,2,06,3.09,264.8,M,-30.6,M,,0000*6A
$GPGSV,4,1,13,01,55,273,33,11,42,235,29,18,,,19,20,,,20*71
$GPGSV,4,2,13,22,,,22,23,,,15,25,09,053,,27,10,127,28*7A
$GPGSV,4,3,13,30,11,144,23,31,66,096,36,32,59,324,40,46,41,142,34*7C
$GPGSV,4,4,13,51,44,156,39*47
$GPRMC,170523.00,A,3700.04517,N,12203.77987,W,0.538,,230413,,,D*6B
$GPGGA,170523.00,3700.04517,N,12203.77987,W,2,06,3.09,264.9,M,-30.6,M,,0000*65
$GPGSV,4,1,13,01,55,273,33,11,42,235,29,18,,,18,20,,,19*7A
$GPGSV,4,2,13,22,,,21,23,,,12,25,09,053,,27,10,127,28*7E
$GPGSV,4,3,13,30,11,144,23,31,66,096,36,32,59,324,40,46,41,142,34*7C
$GPGSV,4,4,13,51,44,156,39*47
$GPRMC,170523.20,A,3700.04512,N,12203.77990,W,0.502,,230413,,,D*63
$GPGGA,170523.20,3700.04512,N,12203.77990,W,2,06,3.09,265.1,M,-30.6,M,,0000*6D
$GPGSV,3,1,11,01,55,273,33,11,42,235,30,18,,,18,23,,,11*7C
$GPGSV,3,2,11,25,09,053,,27,10,127,28,30,11,144,24,31,66,096,38*78
$GPGSV,3,3,11,32,59,324,41,46,41,142,36,51,44,156,39*4D
$GPRMC,170523.40,A,3700.04505,N,12203.77994,W,0.020,,230413,,,D*62
$GPGGA,170523.40,3700.04505,N,12203.77994,W,2,06,3.09,265.6,M,-30.6,M,,0000*6E
$GPGSV,3,1,11,01,55,273,30,11,42,235,29,18,,,17,23,,,10*79
$GPGSV,3,2,11,25,09,053,,27,10,127,28,30,11,144,24,31,66,096,35*75
$GPGSV,3,3,11,32,59,324,39,46,41,142,33,51,44,156,37*49
$GPRMC,170523.60,A,3700.04495,N,12203.77998,W,0.533,,230413,,,D*63
$GPGGA,170523.60,3700.04495,N,12203.77998,W,2,06,3.09,266.3,M,-30.6,M,,0000*6E
$GPGSV,3,1,11,01,55,273,30,11,42,235,24,12,,,26,20,,,26*7A
$GPGSV,3,2,11,25,09,053,,27,10,127,28,30,11,144,24,31,66,096,35*75
$GPGSV,3,3,11,32,59,324,39,46,41,142,34,51,44,156,38*41
$GPRMC,170523.80,A,3700.04489,N,12203.78000,W,0.231,,230413,,,D*62
$GPGGA,170523.80,3700.04489,N,12203.78000,W,2,06,3.09,266.6,M,-30.6,M,,0000*6F
$GPGSV,3,1,11,01,55,273,30,11,42,235,26,12,,,26,20,,,25*7B
$GPGSV,3,2,11,25,09,053,,27,10,127,28,30,11,144,24,31,66,096,35*75
$GPGSV,3,3,11,32,59,324,39,46,41,142,34,51,44,156,39*40
$GPRMC,170524.00,A,3700.04483,N,12203.78000,W,0.431,,230413,,,D*61
$GPGGA,170524.00,3700.04483,N,12203.78000,W,2,06,3.09,267.0,M,-30.6,M,,0000*6D
$GPGSV,3,1,11,01,55,273,31,11,42,235,27,12,,,25,20,,,24*79
$GPGSV,3,2,11,25,09,053,,27,10,127,28,30,11,144,24,31,66,096,36*76
$GPGSV,3,3,11,32,59,324,39,46,41,142,34,51,44,156,39*40
$GPRMC,170524.20,A,3700.04480,N,12203.78000,W,0.128,,230413,,,D*6D
$GPGGA,170524.20,3700.04480,N,12203.78000,W,2,06,3.09,267.1,M,-30.6,M,,0000*6D
$GPGSV,3,1,12,01,55,273,30,11,42,235,27,12,,,24,18,,,27*72
$GPGSV,3,2,12,20,,,23,25,09,053,,27,10,127,27,30,11,144,23*46
$GPGSV,3,3,12,31,66,096,33,32,59,324,36,46,41,142,31,51,44,156,37*7A
$GPRMC,170524.40,A,3700.04471,N,12203.78001,W,0.456,,230413,,,D*68
$GPGGA,170524.40,3700.04471,N,12203.78001,W,2,06,3.09,267.7,M,-30.6,M,,0000*62
$GPGSV,3,1,12,01,55,273,31,11,42,235,28,12,,,24,18,,,26*7D
$GPGSV,3,2,12,20,,,22,25,09,053,,27,10,127,27,30,11,144,23*47
$GPGSV,3,3,12,31,66,096,36,32,59,324,40,46,41,142,34,51,44,156,39*75
$GPRMC,170524.60,A,3700.04461,N,12203.78004,W,0.976,,230413,,,D*61
$GPGGA,170524.60,3700.04461,N,12203.78004,W,2,06,3.09,268.2,M,-30.6,M,,0000*6E
$GPGSV,3,1,12,01,55,273,31,11,42,235,28,12,,,23,18,,,26*7A
$GPGSV,3,2,12,20,,,22,25,09,053,,27,10,127,27,30,11,144,23*47
$GPGSV,3,3,12,31,66,096,36,32,59,324,40,46,41,142,35,51,44,156,40*7A
$GPRMC,170524.80,A,3700.04453,N,12203.78009,W,1.200,,230413,,,D*68
$GPGGA,170524.80,3700.04453,N,12203.78009,W,2,06,3.09,268.3,M,-30.6,M,,0000*6D
$GPGSV,3,1,12,01,55,273,31,11,42,235,29,12,,,22,18,,,25*79
$GPGSV,3,2,12,20,,,21,25,09,053,,27,10,127,27,30,11,144,23*44
$GPGSV,3,3,12,31,66,096,36,32,59,324,41,46,41,142,35,51,44,156,40*7B
$GPRMC,170525.00,A,3700.04443,N,12203.78014,W,0.314,,230413,,,D*69
$GPGGA,170525.00,3700.04443,N,12203.78014,W,2,06,3.10,268.8,M,-30.6,M,,0000*6A
$GPGSV,3,1,12,01,55,273,31,11,42,235,29,12,,,21,18,,,25*7A
$GPGSV,3,2,12,20,,,20,25,09,053,,27,10,127,27,30,11,144,23*45
$GPGSV,3,3,12,31,66,096,36,32,59,324,41,46,41,142,35,51,44,156,40*7B
$GPRMC,170525.20,A,3700.04435,N,12203.78017,W,0.848,,230413,,,D*6B
$GPGGA,170525.20,3700.04435,N,12203.78017,W,2,06,3.10,269.1,M,-30.6,M,,0000*62
$GPGSV,3,1,11,01,55,273,32,11,42,235,30,12,,,20,18,,,24*72
$GPGSV,3,2,11,25,09,053,,27,10,127,27,30,11,144,23,31,66,096,36*7E
$GPGSV,3,3,11,32,59,324,41,46,41,142,35,51,44,156,40*40
$GPRMC,170525.40,A,3700.04436,N,12203.78017,W,0.109,,230413,,,D*62
$GPGGA,170525.40,3700.04436,N,12203.78017,W,2,06,3.10,269.1,M,-30.6,M,,0000*67
$GPGSV,3,1,10,01,55,273,32,11,42,235,29,12,,,20,25,09,053,*4C
$GPGSV,3,2,10,27,10,127,27,30,11,144,23,31,66,096,33,32,59,324,38*71
$GPGSV,3,3,10,46,41,142,32,51,44,156,37*7B
$GPRMC,170525.60,A,3700.04435,N,12203.78016,W,0.266,,230413,,,D*68
$GPGGA,170525.60,3700.04435,N,12203.78016,W,2,06,3.10,269.3,M,-30.6,M,,0000*65
$GPGSV,3,1,10,01,55,273,31,11,42,235,29,12,,,20,25,09,053,*4F
$GPGSV,3,2,10,27,10,127,27,30,11,144,23,31,66,096,34,32,59,324,38*76
$GPGSV,3,3,10,46,41,142,32,51,44,156,37*7B
$GPRMC,170525.80,A,3700.04431,N,12203.78017,W,1.737,220.63,230413,,,D*78
$GPGGA,170525.80,3700.04431,N,12203.78017,W,2,06,3.10,269.4,M,-30.6,M,,0000*69
$GPGSV,3,1,10,01,55,273,31,11,42,235,28,12,,,19,25,09,053,*44
$GPGSV,3,2,10,27,10,127,26,30,11,144,23,31,66,096,34,32,59,324,38*77
$GPGSV,3,3,10,46,41,142,33,51,44,156,38*75
$GPRMC,170526.00,A,3700.04423,N,12203.78021,W,0.139,,230413,,,D*67
$GPGGA,170526.00,3700.04423,N,12203.78021,W,2,06,3.10,269.7,M,-30.6,M,,0000*67
$GPGSV,3,1,10,01,55,273,31,11,42,235,28,12,,,18,25,09,053,*45
$GPGSV,3,2,10,27,10,127,26,30,11,144,23,31,66,096,34,32,59,324,39*76
$GPGSV,3,3,10,46,41,142,33,51,44,156,38*75
$GPRMC,170526.20,A,3700.04418,N,12203.78026,W,0.996,,230413,,,D*67
$GPGGA,170526.20,3700.04418,N,12203.78026,W,2,06,3.10,270.0,M,-30.6,M,,0000*65
$GPGSV,3,1,10,01,55,273,31,11,42,235,28,12,,,13,25,09,053,*4E
$GPGSV,3,2,10,27,10,127,26,30,11,144,23,31,66,096,35,32,59,324,38*76
$GPGSV,3,3,10,46,41,142,33,51,44,156,39*74
$GPRMC,170526.40,A,3700.04417,N,12203.78027,W,0.152,,230413,,,D*6F
$GPGGA,170526.40,3700.04417,N,12203.78027,W,2,06,3.10,270.0,M,-30.6,M,,0000*6D
$GPGSV,3,1,10,01,55,273,31,11,42,235,28,12,,,12,25,09,053,*4F
$GPGSV,3,2,10,27,10,127,26,30,11,144,22,31,66,096,34,32,59,324,38*76
$GPGSV,3,3,10,46,41,142,33,51,44,156,38*75
$GPRMC,170526.60,A,3700.04409,N,12203.78029,W,0.367,,230413,,,D*68
$GPGGA,170526.60,3700.04409,N,12203.78029,W,2,06,3.10,270.6,M,-30.6,M,,0000*68
$GPGSV,3,1,10,01,55,273,32,11,42,235,28,12,,,10,25,09,053,*4E
$GPGSV,3,2,10,27,10,127,25,30,11,144,22,31,66,096,35,32,59,324,40*7B
$GPGSV,3,3,10,46,41,142,33,51,44,156,40*7A
$GPRMC,170526.80,A,3700.04408,N,12203.78030,W,0.511,,230413,,,D*68
$GPGGA,170526.80,3700.04408,N,12203.78030,W,2,06,3.10,270.7,M,-30.6,M,,0000*6E
$GPGSV,3,1,10,01,55,273,32,11,42,235,28,12,,,10,25,09,053,*4E
$GPGSV,3,2,10,27,10,127,26,30,11,144,22,31,66,096,37,32,59,324,40*7A
$GPGSV,3,3,10,46,41,142,34,51,44,156,40*7D
$GPRMC,170527.00,A,3700.04402,N,12203.78036,W,0.676,,230413,,,D*6F
$GPGGA,170527.00,3700.04402,N,12203.78036,W,2,06,3.10,271.1,M,-30.6,M,,0000*6C
$GPGSV,3,1,10,01,55,273,32,11,42,235,28,12,,,09,25,09,053,*46
$GPGSV,3,2,10,27,10,127,26,30,11,144,23,31,66,096,34,32,59,324,38*77
$GPGSV,3,3,10,46,41,142,30,51,44,156,38*76
$GPRMC,170527.20,A,3700.04401,N,12203.78035,W,0.480,,230413,,,D*66
$GPGGA,170527.20,3700.04401,N,12203.78035,W,2,06,3.10,270.9,M,-30.6,M,,0000*67
$GPGSV,3,1,10,01,55,273,33,11,42,235,29,12,,,09,25,09,053,*46
$GPGSV,3,2,10,27,10,127,26,30,11,144,23,31,66,096,35,32,59,324,38*76
$GPGSV,3,3,10,46,41,142,31,51,44,156,41*79
$GPRMC,170527.40,A,3700.04388,N,12203.78045,W,0.796,,230413,,,D*65
$GPGGA,170527.40,3700.04388,N,12203.78045,W,2,06,3.10,271.7,M,-30.6,M,,0000*6F
$GPGSV,3,1,10,01,55,273,33,11,42,235,29,12,,,08,25,09,053,*47
$GPGSV,3,2,10,27,10,127,26,30,11,144,22,31,66,096,34,32,59,324,38*76
$GPGSV,3,3,10,46,41,142,32,51,44,156,40*7B
$GPRMC,170527.60,A,3700.04385,N,12203.78048,W,0.145,,230413,,,D*6F
$GPGGA,170527.60,3700.04385,N,12203.78048,W,2,06,3.10,271.8,M,-30.6,M,,0000*62
$GPGSV,3,1,10,01,55,273,36,11,42,235,29,12,,,08,25,09,053,*42
$GPGSV,3,2,10,27,10,127,26,30,11,144,22,31,66,096,37,32,59,324,40*7A
$GPGSV,3,3,10,46,41,142,35,51,44,156,43*7F
$GPRMC,170527.80,A,3700.04378,N,12203.78054,W,0.239,,230413,,,D*66
$GPGGA,170527.80,3700.04378,N,12203.78054,W,2,06,3.10,272.1,M,-30.6,M,,0000*69
$GPGSV,3,1,10,01,55,273,36,11,42,235,29,12,,,08,25,09,053,*42
$GPGSV,3,2,10,27,10,127,26,30,11,144,22,31,66,096,37,32,59,324,40*7A
$GPGSV,3,3,10,46,41,142,35,51,44,156,42*7E
$GPRMC,170528.00,A,3700.04374,N,12203.78055,W,0.348,,230413,,,D*6B
$GPGGA,170528.00,3700.04374,N,12203.78055,W,2,06,3.10,272.2,M,-30.6,M,,0000*60
$GPGSV,3,1,10,01,55,273,36,11,42,235,29,12,,,08,25,09,053,*42
$GPGSV,3,2,10,27,10,127,26,30,11,144,22,31,66,096,37,32,59,324,40*7A
$GPGSV,3,3,10,46,41,142,35,51,44,156,43*7F
$GPRMC,170528.20,A,3700.04364,N,12203.78062,W,0.139,,230413,,,D*68
$GPGGA,170528.20,3700.04364,N,12203.78062,W,2,06,3.10,272.8,M,-30.6,M,,0000*6D
$GPGSV,3,1,10,01,55,273,35,11,42,235,29,12,,,08,25,09,053,*41
$GPGSV,3,2,10,27,10,127,26,30,11,144,22,31,66,096,37,32,59,324,40*7A
$GPGSV,3,3,10,46,41,142,35,51,44,156,41*7D
$GPRMC,170528.40,A,3700.04361,N,12203.78063,W,0.302,,230413,,,D*60
$GPGGA,170528.40,3700.04361,N,12203.78063,W,2,06,3.10,273.0,M,-30.6,M,,0000*66
$GPGSV,3,1,10,01,55,273,32,11,42,235,29,12,,,08,25,09,053,*46
$GPGSV,3,2,10,27,10,127,25,30,11,144,21,31,66,096,34,32,59,324,36*78
$GPGSV,3,3,10,46,41,142,31,51,44,156,38*77
$GPRMC,170528.60,A,3700.04358,N,12203.78068,W,0.209,,230413,,,D*69
$GPGGA,170528.60,3700.04358,N,12203.78068,W,2,06,3.10,273.0,M,-30.6,M,,0000*65
$GPGSV,3,1,10,01,55,273,32,11,42,235,29,12,,,08,25,09,053,*46
$GPGSV,3,2,10,27,10,127,25,30,11,144,21,31,66,096,38,32,59,324,40*75
$GPGSV,3,3,10,46,41,142,35,51,44,156,42*7E
$GPRMC,170528.80,A,3700.04359,N,12203.78070,W,0.204,,230413,,,D*62
$GPGGA,170528.80,3700.04359,N,12203.78070,W,2,06,3.10,272.8,M,-30.6,M,,0000*6A
$GPGSV,3,1,10,01,55,273,33,11,42,235,29,12,,,08,25,09,053,*47
$GPGSV,3,2,10,27,10,127,26,30,11,144,21,31,66,096,38,32,59,324,41*77
$GPGSV,3,3,10,46,41,142,38,51,44,156,42*73
$GPRMC,170529.00,A,3700.04352,N,12203.78075,W,0.464,,230413,,,D*65
$GPGGA,170529.00,3700.04352,N,12203.78075,W,2,06,3.10,273.2,M,-30.6,M,,0000*66
$GPGSV,3,1,10,01,55,273,33,11,42,235,29,12,,,08,25,09,053,*47
$GPGSV,3,2,10,27,10,127,26,30,11,144,21,31,66,096,36,32,59,324,40*78
$GPGSV,3,3,10,46,41,142,36,51,44,156,40*7F
$GPRMC,170529.20,A,3700.04349,N,12203.78078,W,0.555,,230413,,,D*63
$GPGGA,170529.20,3700.04349,N,12203.78078,W,2,06,3.10,273.3,M,-30.6,M,,0000*62
$GPGSV,3,1,10,01,55,273,29,11,42,235,29,12,,,08,25,09,053,*4C
$GPGSV,3,2,10,27,10,127,25,30,11,144,22,31,66,096,33,32,59,324,36*7C
$GPGSV,3,3,10,46,41,142,32,51,44,156,37*7B
$GPRMC,170529.40,A,3700.04349,N,12203.78078,W,0.571,,230413,,,D*63
$GPGGA,170529.40,3700.04349,N,12203.78078,W,2,06,3.10,273.2,M,-30.6,M,,0000*65
$GPGSV,3,1,10,01,55,273,33,11,42,235,29,12,,,08,25,09,053,*47
$GPGSV,3,2,10,27,10,127,25,30,11,144,22,31,66,096,33,32,59,324,38*72
$GPGSV,3,3,10,46,41,142,33,51,44,156,37*7A
$GPRMC,170529.60,A,3700.04341,N,12203.78080,W,0.106,,230413,,,D*6A
$GPGGA,170529.60,3700.04341,N,12203.78080,W,2,06,3.10,273.8,M,-30.6,M,,0000*62
$GPGSV,3,1,10,01,55,273,33,11,42,235,29,12,,,08,25,09,053,*47
$GPGSV,3,2,10,27,10,127,26,30,11,144,22,31,66,096,38,32,59,324,40*75
$GPGSV,3,3,10,46,41,142,36,51,44,156,40*7F
$GPRMC,170529.80,A,3700.04338,N,12203.78081,W,0.292,,230413,,,D*65
$GPGGA,170529.80,3700.04338,N,12203.78081,W,2,06,3.10,273.9,M,-30.6,M,,0000*62
$GPGSV,3,1,10,01,55,273,33,11,42,235,29,12,,,07,25,09,053,*48
$GPGSV,3,2,10,27,10,127,26,30,11,144,22,31,66,096,38,32,59,324,40*75
$GPGSV,3,3,10,46,41,142,36,51,44,156,40*7F
$GPRMC,170530.00,A,3700.04334,N,12203.78085,W,1.495,234.26,230413,,,D*72
$GPGGA,170530.00,3700.04334,N,12203.78085,W,2,06,3.10,274.0,M,-30.6,M,,0000*64
$GPGSV,3,1,10,01,55,273,33,11,42,235,29,12,,,07,25,09,053,*48
$GPGSV,3,2,10,27,10,127,26,30,11,144,23,31,66,096,38,32,59,324,40*74
$GPGSV,3,3,10,46,41,142,36,51,44,156,40*7F
$GPRMC,170530.20,A,3700.04331,N,12203.78087,W,0.116,,230413,,,D*67
$GPGGA,170530.20,3700.04331,N,12203.78087,W,2,06,3.10,274.1,M,-30.6,M,,0000*60
$GPGSV,3,1,09,01,55,273,33,11,42,235,28,25,09,053,,27,10,127,26*71
$GPGSV,3,2,09,30,11,144,22,31,66,096,37,32,59,324,40,46,41,142,35*70
$GPGSV,3,3,09,51,44,156,40*42
$GPRMC,170530.40,A,3700.04335,N,12203.78084,W,0.319,,230413,,,D*6B
$GPGGA,170530.40,3700.04335,N,12203.78084,W,2,06,3.10,273.9,M,-30.6,M,,0000*6E
$GPGSV,3,1,09,01,55,273,33,11,42,235,29,25,09,053,,27,10,127,26*70
$GPGSV,3,2,09,30,11,144,22,31,66,096,35,32,59,324,37,46,41,142,35*72
$GPGSV,3,3,09,51,44,156,38*4D
$GPRMC,170530.60,A,3700.04335,N,12203.78081,W,0.806,,230413,,,D*69
$GPGGA,170530.60,3700.04335,N,12203.78081,W,2,06,3.10,274.1,M,-30.6,M,,0000*66
$GPGSV,3,1,09,01,55,273,28,11,42,235,28,25,09,053,,27,10,127,26*7B
$GPGSV,3,2,09,30,11,144,21,31,66,096,35,32,59,324,36,46,41,142,32*77
$GPGSV,3,3,09,51,44,156,36*43
$GPRMC,170530.80,A,3700.04337,N,12203.78078,W,0.248,,230413,,,D*63
$GPGGA,170530.80,3700.04337,N,12203.78078,W,2,06,3.10,274.1,M,-30.6,M,,0000*6C
$GPGSV,3,1,09,01,55,273,33,11,42,235,28,25,09,053,,27,10,127,26*71
$GPGSV,3,2,09,30,11,144,22,31,66,096,37,32,59,324,39,46,41,142,35*7E
$GPGSV,3,3,09,51,44,156,40*42
$GPRMC,170531.00,A,3700.04337,N,12203.78077,W,0.207,,230413,,,D*6E
$GPGGA,170531.00,3700.04337,N,12203.78077,W,2,06,3.10,274.1,M,-30.6,M,,0000*6A
$GPGSV,3,1,09,01,55,273,33,11,42,235,28,25,09,053,,27,10,127,26*71
$GPGSV,3,2,09,30,11,144,22,31,66,096,37,32,59,324,39,46,41,142,35*7E
$GPGSV,3,3,09,51,44,156,40*42
$GPRMC,170531.20,A,3700.04336,N,12203.78076,W,0.216,,230413,,,D*6C
$GPGGA,170531.20,3700.04336,N,12203.78076,W,2,06,3.10,274.1,M,-30.6,M,,0000*68
$GPGSV,3,1,09,01,55,273,32,11,42,235,28,25,09,053,,27,10,127,26*70
$GPGSV,3,2,09,30,11,144,22,31,66,096,37,32,59,324,39,46,41,142,35*7E
$GPGSV,3,3,09,51,44,156,40*42
$GPRMC,170531.40,A,3700.04330,N,12203.78080,W,0.464,,230413,,,D*66
$GPGGA,170531.40,3700.04330,N,12203.78080,W,2,06,3.10,274.5,M,-30.6,M,,0000*65
$GPGSV,3,1,09,01,55,273,32,11,42,235,28,25,09,053,,27,10,127,26*70
$GPGSV,3,2,09,30,11,144,22,31,66,096,34,32,59,324,37,46,41,142,32*74
$GPGSV,3,3,09,51,44,156,35*40
$GPRMC,170531.60,A,3700.04329,N,12203.78083,W,0.681,,230413,,,D*66
$GPGGA,170531.60,3700.04329,N,12203.78083,W,2,06,3.10,274.5,M,-30.6,M,,0000*6C
$GPGSV,3,1,09,01,55,273,32,11,42,235,28,25,09,053,,27,10,127,26*70
$GPGSV,3,2,09,30,11,144,22,31,66,096,34,32,59,324,39,46,41,142,35*7D
$GPGSV,3,3,09,51,44,156,39*4C
$GPRMC,170531.80,A,3700.04328,N,12203.78084,W,0.113,,230413,,,D*62
$GPGGA,170531.80,3700.04328,N,12203.78084,W,2,06,3.10,274.6,M,-30.6,M,,0000*67
$GPGSV,3,1,09,01,55,273,32,11,42,235,28,25,09,053,,27,10,127,26*70
$GPGSV,3,2,09,30,11,144,22,31,66,096,36,32,59,324,39,46,41,142,34*7E
$GPGSV,3,3,09,51,44,156,39*4C
$GPRMC,170532.00,A,3700.04326,N,12203.78085,W,0.090,,230413,,,D*6C
$GPGGA,170532.00,3700.04326,N,12203.78085,W,2,06,3.10,274.6,M,-30.6,M,,0000*63
$GPGSV,3,1,09,01,55,273,32,11,42,235,28,25,09,053,,27,10,127,26*70
$GPGSV,3,2,09,30,11,144,22,31,66,096,36,32,59,324,39,46,41,142,34*7E
$GPGSV,3,3,09,51,44,156,39*4C
$GPRMC,170532.20,A,3700.04325,N,12203.78084,W,0.521,,230413,,,D*63
$GPGGA,170532.20,3700.04325,N,12203.78084,W,2,06,3.10,274.8,M,-30.6,M,,0000*6D
$GPGSV,3,1,09,01,55,273,32,11,42,235,27,25,09,053,,27,10,127,25*7C
$GPGSV,3,2,09,30,11,144,22,31,66,096,34,32,59,324,35,46,41,142,31*75
$GPGSV,3,3,09,51,44,156,37*42
$GPRMC,170532.40,A,3700.04319,N,12203.78090,W,1.209,,230413,,,D*63
$GPGGA,170532.40,3700.04319,N,12203.78090,W,2,06,3.10,275.2,M,-30.6,M,,0000*6A
$GPGSV,3,1,09,01,55,273,32,11,42,235,28,25,09,053,,27,10,127,26*70
$GPGSV,3,2,09,30,11,144,22,31,66,096,36,32,59,324,39,46,41,142,34*7E
$GPGSV,3,3,09,51,44,156,40*42
$GPRMC,170532.60,A,3700.04319,N,12203.78090,W,0.563,,230413,,,D*6B
$GPGGA,170532.60,3700.04319,N,12203.78090,W,2,06,3.10,275.1,M,-30.6,M,,0000*6B
$GPGSV,3,1,09,01,55,273,32,11,42,235,28,25,09,053,,27,10,127,26*70
$GPGSV,3,2,09,30,11,144,22,31,66,096,36,32,59,324,40,46,41,142,35*71
$GPGSV,3,3,09,51,44,156,40*42
$GPRMC,170532.80,A,3700.04319,N,12203.78090,W,0.502,,230413,,,D*62
$GPGGA,170532.80,3700.04319,N,12203.78090,W,2,06,3.10,275.1,M,-30.6,M,,0000*65
$GPGSV,3,1,09,01,55,273,32,11,42,235,28,25,09,053,,27,10,127,26*70
$GPGSV,3,2,09,30,11,144,22,31,66,096,38,32,59,324,40,46,41,142,35*7F
$GPGSV,3,3,09,51,44,156,40*42
$GPRMC,170533.00,A,3700.04318,N,12203.78092,W,0.291,,230413,,,D*65
$GPGGA,170533.00,3700.04318,N,12203.78092,W,2,06,3.10,275.2,M,-30.6,M,,0000*6C
$GPGSV,3,1,09,01,55,273,32,11,42,235,28,25,09,053,,27,10,127,26*70
$GPGSV,3,2,09,30,11,144,22,31,66,096,38,32,59,324,40,46,41,142,35*7F
$GPGSV,3,3,09,51,44,156,40*42
$GPRMC,170533.20,A,3700.04317,N,12203.78093,W,0.444,,230413,,,D*67
$GPGGA,170533.20,3700.04317,N,12203.78093,W,2,06,3.10,275.2,M,-30.6,M,,0000*60
$GPGSV,3,1,09,01,55,273,33,11,42,235,28,25,09,053,,27,10,127,26*71
$GPGSV,3,2,09,30,11,144,22,31,66,096,38,32,59,324,40,46,41,142,35*7F
$GPGSV,3,3,09,51,44,156,40*42
$GPRMC,170533.40,A,3700.04320,N,12203.78090,W,1.132,,230413,,,D*63
$GPGGA,170533.40,3700.04320,N,12203.78090,W,2,06,3.10,274.9,M,-30.6,M,,0000*6B
$GPGSV,3,1,09,01,55,273,33,11,42,235,28,25,09,053,,27,10,127,26*71
$GPGSV,3,2,09,30,11,144,22,31,66,096,33,32,59,324,38,46,41,142,35*7B
$GPGSV,3,3,09,51,44,156,37*42
$GPRMC,170533.60,A,3700.04321,N,12203.78088,W,0.168,,230413,,,D*67
$GPGGA,170533.60,3700.04321,N,12203.78088,W,2,06,3.11,274.9,M,-30.6,M,,0000*60
$GPGSV,3,1,09,01,55,273,33,11,42,235,28,25,09,053,,27,10,127,26*71
$GPGSV,3,2,09,30,11,144,22,31,66,096,36,32,59,324,40,46,41,142,35*71
$GPGSV,3,3,09,51,44,156,41*43
$GPRMC,170533.80,A,3700.04319,N,12203.78089,W,0.112,,230413,,,D*6E
$GPGGA,170533.80,3700.04319,N,12203.78089,W,2,06,3.11,274.8,M,-30.6,M,,0000*65
$GPGSV,3,1,09,01,55,273,33,11,42,235,29,25,09,053,,27,10,127,26*70
$GPGSV,3,2,09,30,11,144,22,31,66,096,37,32,59,324,40,46,41,142,35*70
$GPGSV,3,3,09,51,44,156,41*43
$GPRMC,170534.00,A,3700.04315,N,12203.78090,W,0.366,,230413,,,D*64
$GPGGA,170534.00,3700.04315,N,12203.78090,W,2,06,3.11,274.9,M,-30.6,M,,0000*6F
$GPGSV,3,1,09,01,55,273,32,11,42,235,28,25,09,053,,27,10,127,26*70
$GPGSV,3,2,09,30,11,144,22,31,66,096,37,32,59,324,40,46,41,142,35*70
$GPGSV,3,3,09,51,44,156,40*42
$GPRMC,170534.20,A,3700.04312,N,12203.78095,W,0.681,,230413,,,D*68
$GPGGA,170534.20,3700.04312,N,12203.78095,W,2,06,3.11,275.0,M,-30.6,M,,0000*67
$GPGSV,3,1,09,01,55,273,28,11,42,235,28,25,09,053,,27,10,127,26*7B
$GPGSV,3,2,09,30,11,144,21,31,66,096,34,32,59,324,35,46,41,142,32*75
$GPGSV,3,3,09,51,44,156,37*42
$GPRMC,170534.40,A,3700.04308,N,12203.78102,W,0.383,,230413,,,D*6D
$GPGGA,170534.40,3700.04308,N,12203.78102,W,2,06,3.11,275.3,M,-30.6,M,,0000*66
$GPGSV,3,1,09,01,55,273,29,11,42,235,28,25,09,053,,27,11,127,26*7B
$GPGSV,3,2,09,30,11,144,21,31,66,096,37,32,59,324,38,46,41,142,35*7C
$GPGSV,3,3,09,51,44,156,39*4C
$GPRMC,170534.60,A,3700.04305,N,12203.78106,W,0.181,,230413,,,D*66
$GPGGA,170534.60,3700.04305,N,12203.78106,W,2,06,3.11,275.6,M,-30.6,M,,0000*68
$GPGSV,3,1,09,01,55,273,30,11,42,235,28,25,09,053,,27,11,127,26*73
$GPGSV,3,2,09,30,11,144,21,31,66,096,37,32,59,324,38,46,41,142,35*7C
$GPGSV,3,3,09,51,44,156,39*4C
$GPRMC,170534.80,A,3700.04304,N,12203.78108,W,0.540,,230413,,,D*6E
$GPGGA,170534.80,3700.04304,N,12203.78108,W,2,06,3.11,275.7,M,-30.6,M,,0000*68
$GPGSV,3,1,09,01,55,273,30,11,42,235,28,25,09,053,,27,11,127,26*73
$GPGSV,3,2,09,30,11,144,20,31,66,096,36,32,59,324,38,46,41,142,35*7C
$GPGSV,3,3,09,51,44,156,39*4C
$GPRMC,170535.00,A,3700.04302,N,12203.78107,W,0.642,,230413,,,D*6F
$GPGGA,170535.00,3700.04302,N,12203.78107,W,2,06,3.11,275.8,M,-30.6,M,,0000*67
$GPGSV,3,1,09,01,55,273,31,11,42,235,28,25,09,053,,27,11,127,26*72
$GPGSV,3,2,09,30,11,144,20,31,66,096,36,32,59,324,38,46,41,142,35*7C
$GPGSV,3,3,09,51,44,156,39*4C
$GPRMC,170535.20,A,3700.04297,N,12203.78108,W,0.376,,230413,,,D*6D
$GPGGA,170535.20,3700.04297,N,12203.78108,W,2,06,3.11,276.1,M,-30.6,M,,0000*6D
$GPGSV,3,1,09,01,55,273,31,11,42,235,28,25,09,053,,27,11,127,26*72
$GPGSV,3,2,09,30,11,144,20,31,66,096,36,32,59,324,38,46,41,142,35*7C
$GPGSV,3,3,09,51,44,156,39*4C
$GPRMC,170535.40,A,3700.04306,N,12203.78099,W,0.789,,230413,,,D*6F
$GPGGA,170535.40,3700.04306,N,12203.78099,W,2,06,3.11,275.4,M,-30.6,M,,0000*6D
$GPGSV,3,1,09,01,55,273,31,11,42,235,28,25,09,053,,27,11,127,26*72
$GPGSV,3,2,09,30,11,144,19,31,66,096,33,32,59,324,36,46,41,142,31*79
$GPGSV,3,3,09,51,44,156,37*42
$GPRMC,170535.60,A,3700.04309,N,12203.78096,W,0.348,,230413,,,D*64
$GPGGA,170535.60,3700.04309,N,12203.78096,W,2,06,3.11,275.1,M,-30.6,M,,0000*6A
$GPGSV,3,1,09,01,55,273,30,11,42,235,28,25,09,053,,27,11,127,26*73
$GPGSV,3,2,09,30,11,144,19,31,66,096,36,32,59,324,38,46,41,142,34*77
$GPGSV,3,3,09,51,44,156,37*42
$GPRMC,170535.80,A,3700.04308,N,12203.78098,W,0.340,,230413,,,D*6D
$GPGGA,170535.80,3700.04308,N,12203.78098,W,2,06,3.11,275.0,M,-30.6,M,,0000*6A
$GPGSV,3,1,09,01,55,273,31,11,42,235,28,25,09,053,,27,11,127,26*72
$GPGSV,3,2,09,30,11,144,19,31,66,096,36,32,59,324,38,46,41,142,34*77
$GPGSV,3,3,09,51,44,156,39*4C
$GPRMC,170536.00,A,3700.04306,N,12203.78099,W,0.480,,230413,,,D*62
$GPGGA,170536.00,3700.04306,N,12203.78099,W,2,06,3.11,275.2,M,-30.6,M,,0000*6C
$GPGSV,3,1,09,01,55,273,31,11,42,235,28,25,09,053,,27,11,127,26*72
$GPGSV,3,2,09,30,11,144,19,31,66,096,36,32,59,324,38,46,41,142,34*77
$GPGSV,3,3,09,51,44,156,39*4C
$GPRMC,170536.20,A,3700.04306,N,12203.78097,W,0.408,,230413,,,D*6E
$GPGGA,170536.20,3700.04306,N,12203.78097,W,2,06,3.11,275.1,M,-30.6,M,,0000*63
$GPGSV,3,1,09,01,55,273,31,11,42,235,28,25,09,053,,27,11,127,26*72
$GPGSV,3,2,09,30,11,144,18,31,66,096,36,32,59,324,38,46,41,142,34*76
$GPGSV,3,3,09,51,44,156,39*4C
$GPRMC,170536.40,A,3700.04306,N,12203.78098,W,0.307,,230413,,,D*6F
$GPGGA,170536.40,3700.04306,N,12203.78098,W,2,06,3.11,275.0,M,-30.6,M,,0000*6B
$GPGSV,3,1,09,01,55,273,31,11,42,235,28,25,09,053,,27,11,127,26*72
$GPGSV,3,2,09,30,11,144,18,31,66,096,36,32,59,324,38,46,41,142,34*76
$GPGSV,3,3,09,51,44,156,39*4C
$GPRMC,170536.60,A,3700.04306,N,12203.78099,W,0.766,,230413,,,D*6F
$GPGGA,170536.60,3700.04306,N,12203.78099,W,2,06,3.11,274.7,M,-30.6,M,,0000*6E
$GPGSV,3,1,09,01,55,273,31,11,42,235,28,25,09,053,,27,11,127,26*72
$GPGSV,3,2,09,30,11,144,18,31,66,096,36,32,59,324,38,46,41,142,34*76
$GPGSV,3,3,09,51,44,156,39*4C
$GPRMC,170536.80,A,3700.04304,N,12203.78102,W,0.202,,230413,,,D*67
$GPGGA,170536.80,3700.04304,N,12203.78102,W,2,06,3.11,274.6,M,-30.6,M,,0000*60
$GPGSV,3,1,09,01,55,273,30,11,42,235,27,25,09,053,,27,11,127,26*7C
$GPGSV,3,2,09,30,11,144,18,31,66,096,36,32,59,324,38,46,41,142,34*76
$GPGSV,3,3,09,51,44,156,39*4C
$GPRMC,170537.00,A,3700.04303,N,12203.78102,W,0.289,,230413,,,D*6A
$GPGGA,170537.00,3700.04303,N,12203.78102,W,2,06,3.11,274.6,M,-30.6,M,,0000*6E
$GPGSV,3,1,09,01,55,273,31,11,42,235,27,25,09,053,,27,11,127,26*7D
$GPGSV,3,2,09,30,11,144,18,31,66,096,36,32,59,324,38,46,41,142,34*76
$GPGSV,3,3,09,51,44,156,39*4C
$GPRMC,170537.20,A,3700.04300,N,12203.78104,W,0.237,,230413,,,D*68
$GPGGA,170537.20,3700.04300,N,12203.78104,W,2,06,3.11,274.8,M,-30.6,M,,0000*67
$GPGSV,3,1,09,01,55,273,31,11,42,235,28,25,09,053,,27,11,127,26*72
$GPGSV,3,2,09,30,11,144,18,31,66,096,33,32,59,324,36,46,41,142,34*7D
$GPGSV,3,3,09,51,44,156,37*42
$GPRMC,170537.40,A,3700.04300,N,12203.78102,W,0.350,,230413,,,D*68
$GPGGA,170537.40,3700.04300,N,12203.78102,W,2,06,3.11,274.7,M,-30.6,M,,0000*68
$GPGSV,3,1,09,01,55,273,31,11,42,235,27,25,09,053,,27,11,127,26*7D
$GPGSV,3,2,09,30,11,144,18,31,66,096,33,32,59,324,36,46,41,142,34*7D
$GPGSV,3,3,09,51,44,156,37*42
$GPRMC,170537.60,A,3700.04300,N,12203.78102,W,0.201,,230413,,,D*6F
$GPGGA,170537.60,3700.04300,N,12203.78102,W,2,06,3.11,274.5,M,-30.6,M,,0000*68
$GPGSV,3,1,09,01,55,273,32,11,42,235,27,25,09,053,,27,11,127,26*7E
$GPGSV,3,2,09,30,11,144,18,31,66,096,36,32,59,324,40,46,41,142,34*79
$GPGSV,3,3,09,51,44,156,41*43
$GPRMC,170537.80,A,3700.04299,N,12203.78104,W,0.313,,230413,,,D*64
$GPGGA,170537.80,3700.04299,N,12203.78104,W,2,06,3.11,274.4,M,-30.6,M,,0000*60
$GPGSV,3,1,09,01,55,273,32,11,42,235,28,25,09,053,,27,11,127,26*71
$GPGSV,3,2,09,30,11,144,18,31,66,096,36,32,59,324,40,46,41,142,34*79
$GPGSV,3,3,09,51,44,156,41*43
$GPRMC,170538.00,A,3700.04298,N,12203.78105,W,0.660,,230413,,,D*62
$GPGGA,170538.00,3700.04298,N,12203.78105,W,2,06,3.11,274.5,M,-30.6,M,,0000*66
$GPGSV,3,1,09,01,55,273,33,11,42,235,28,25,09,053,,27,11,127,26*70
$GPGSV,3,2,09,30,11,144,18,31,66,096,36,32,59,324,39,46,41,142,34*77
$GPGSV,3,3,09,51,44,156,41*43
$GPRMC,170538.20,A,3700.04298,N,12203.78104,W,0.844,,230413,,,D*69
$GPGGA,170538.20,3700.04298,N,12203.78104,W,2,06,3.11,274.4,M,-30.6,M,,0000*64
$GPGSV,3,1,09,01,55,273,33,11,42,235,28,25,09,053,,27,11,127,26*70
$GPGSV,3,2,09,30,11,144,18,31,66,096,36,32,59,324,40,46,41,142,34*79
$GPGSV,3,3,09,51,44,156,41*43
$GPRMC,170538.40,A,3700.04297,N,12203.78106,W,0.189,,230413,,,D*6A
$GPGGA,170538.40,3700.04297,N,12203.78106,W,2,06,3.11,274.5,M,-30.6,M,,0000*6E
$GPGSV,3,1,09,01,55,273,33,11,42,235,29,25,09,053,,27,11,127,26*71
$GPGSV,3,2,09,30,11,144,18,31,66,096,36,32,59,324,39,46,41,142,35*76
$GPGSV,3,3,09,51,44,156,39*4C
$GPRMC,170538.60,A,3700.04298,N,12203.78106,W,0.442,,230413,,,D*65
$GPGGA,170538.60,3700.04298,N,12203.78106,W,2,06,3.11,274.4,M,-30.6,M,,0000*62
$GPGSV,3,1,09,01,55,273,33,11,42,235,29,25,09,053,,27,11,127,26*71
$GPGSV,3,2,09,30,11,144,18,31,66,096,36,32,59,324,39,46,41,142,35*76
$GPGSV,3,3,09,51,44,156,41*43
$GPRMC,170538.80,A,3700.04298,N,12203.78107,W,0.242,,230413,,,D*6C
$GPGGA,170538.80,3700.04298,N,12203.78107,W,2,06,3.11,274.3,M,-30.6,M,,0000*6A
$GPGSV,3,1,09,01,55,273,33,11,42,235,29,25,09,053,,27,11,127,26*71
$GPGSV,3,2,09,30,11,144,17,31,66,096,36,32,59,324,39,46,41,142,34*78
$GPGSV,3,3,09,51,44,156,40*42
$GPRMC,170539.00,A,3700.04295,N,12203.78110,W,0.204,,230413,,,D*6C
$GPGGA,170539.00,3700.04295,N,12203.78110,W,2,06,3.11,274.4,M,-30.6,M,,0000*6F
$GPGSV,3,1,09,01,55,273,33,11,42,235,29,25,09,053,,27,11,127,26*71
$GPGSV,3,2,09,30,11,144,17,31,66,096,36,32,59,324,39,46,41,142,34*78
$GPGSV,3,3,09,51,44,156,40*42
$GPRMC,170539.20,A,3700.04294,N,12203.78109,W,0.638,,230413,,,D*6C
$GPGGA,170539.20,3700.04294,N,12203.78109,W,2,06,3.11,274.2,M,-30.6,M,,0000*62
$GPGSV,3,1,09,01,55,273,29,11,42,235,28,25,09,053,,27,11,127,26*7B
$GPGSV,3,2,09,30,11,144,16,31,66,096,33,32,59,324,34,46,41,142,31*74
$GPGSV,3,3,09,51,44,156,37*42
$GPRMC,170539.40,A,3700.04292,N,12203.78105,W,0.455,,230413,,,D*69
$GPGGA,170539.40,3700.04292,N,12203.78105,W,2,06,3.11,274.1,M,-30.6,M,,0000*6D
$GPGSV,3,1,09,01,55,273,29,11,42,235,28,25,09,053,,27,11,127,26*7B
$GPGSV,3,2,09,30,11,144,16,31,66,096,33,32,59,324,34,46,41,142,31*74
$GPGSV,3,3,09,51,44,156,37*42
$GPRMC,170539.60,A,3700.04288,N,12203.78108,W,0.630,,230413,,,D*6C
$GPGGA,170539.60,3700.04288,N,12203.78108,W,2,06,3.11,274.1,M,-30.6,M,,0000*69
$GPGSV,4,1,15,01,55,273,33,11,42,235,28,12,,,30,13,,,27*70
$GPGSV,4,2,15,14,,,30,18,,,24,23,,,26,24,,,27*74
$GPGSV,4,3,15,25,09,053,,27,11,127,26,30,11,144,16,31,66,096,36*7A
$GPGSV,4,4,15,32,59,324,39,46,41,142,34,51,44,156,40*4A
$GPRMC,170539.80,A,3700.04287,N,12203.78111,W,0.589,,230413,,,D*64
$GPGGA,170539.80,3700.04287,N,12203.78111,W,2,06,3.11,274.1,M,-30.6,M,,0000*60
$GPGSV,4,1,15,01,55,273,33,11,42,235,28,12,,,22,13,,,26*72
$GPGSV,4,2,15,14,,,23,18,,,23,23,,,26,24,,,27*71
$GPGSV,4,3,15,25,09,053,,27,11,127,26,30,11,144,16,31,66,096,36*7A
$GPGSV,4,4,15,32,59,324,39,46,41,142,34,51,44,156,40*4A
$GPRMC,170540.00,A,3700.04285,N,12203.78115,W,0.487,,230413,,,D*6B
$GPGGA,170540.00,3700.04285,N,12203.78115,W,2,06,3.11,274.2,M,-30.6,M,,0000*63
$GPGSV,4,1,15,01,55,273,33,11,42,235,28,12,,,22,13,,,26*72
$GPGSV,4,2,15,14,,,22,18,,,22,23,,,25,24,,,26*73
$GPGSV,4,3,15,25,09,053,,27,11,127,26,30,11,144,16,31,66,096,36*7A
$GPGSV,4,4,15,32,59,324,38,46,41,142,34,51,44,156,40*4B
$GPRMC,170540.20,A,3700.04279,N,12203.78118,W,1.035,,230413,,,D*6B
$GPGGA,170540.20,3700.04279,N,12203.78118,W,2,06,3.11,274.7,M,-30.6,M,,0000*6A
$GPGSV,4,1,15,01,55,273,33,11,42,235,29,12,,,21,13,,,25*73
$GPGSV,4,2,15,14,,,21,18,,,21,23,,,25,24,,,25*70
$GPGSV,4,3,15,25,09,053,,27,11,127,26,30,11,144,15,31,66,096,36*79
$GPGSV,4,4,15,32,59,324,38,46,41,142,34,51,44,156,40*4B
$GPRMC,170540.40,A,3700.04288,N,12203.78111,W,0.316,,230413,,,D*69
$GPGGA,170540.40,3700.04288,N,12203.78111,W,2,06,3.11,274.0,M,-30.6,M,,0000*6C
$GPGSV,4,1,15,01,55,273,33,11,42,235,29,12,,,21,13,,,24*72
$GPGSV,4,2,15,14,,,20,18,,,20,23,,,25,24,,,25*70
$GPGSV,4,3,15,25,09,053,,27,11,127,26,30,11,144,15,31,66,096,36*79
$GPGSV,4,4,15,32,59,324,38,46,41,142,34,51,44,156,40*4B
$GPRMC,170540.60,A,3700.04292,N,12203.78110,W,0.695,,230413,,,D*6F
$GPGGA,170540.60,3700.04292,N,12203.78110,W,2,06,3.11,273.6,M,-30.6,M,,0000*65
$GPGSV,4,1,15,01,55,273,29,11,42,235,29,12,,,20,13,,,24*78
$GPGSV,4,2,15,14,,,19,18,,,20,23,,,24,24,,,24*7A
$GPGSV,4,3,15,25,09,053,,27,11,127,26,30,11,144,16,31,66,096,36*7A
$GPGSV,4,4,15,32,59,324,39,46,41,142,34,51,44,156,40*4A
$GPRMC,170540.80,A,3700.04296,N,12203.78107,W,1.023,,230413,,,D*69
$GPGGA,170540.80,3700.04296,N,12203.78107,W,2,06,3.11,273.3,M,-30.6,M,,0000*6C
$GPGSV,4,1,15,01,55,273,30,11,42,235,29,12,,,19,13,,,23*7D
$GPGSV,4,2,15,14,,,18,18,,,19,23,,,23,24,,,23*71
$GPGSV,4,3,15,25,09,053,,27,11,127,26,30,11,144,16,31,66,096,36*7A
$GPGSV,4,4,15,32,59,324,39,46,41,142,34,51,44,156,40*4A
$GPRMC,170541.00,A,3700.04292,N,12203.78111,W,0.638,,230413,,,D*6E
$GPGGA,170541.00,3700.04292,N,12203.78111,W,2,06,3.11,273.3,M,-30.6,M,,0000*66
$GPGSV,4,1,14,01,55,273,34,11,42,235,29,13,,,22,14,,,18*7E
$GPGSV,4,2,14,18,,,19,23,,,22,24,,,22,25,09,053,*44
$GPGSV,4,3,14,27,11,127,26,30,11,144,16,31,66,096,38,32,59,324,40*71
$GPGSV,4,4,14,46,41,142,35,51,44,156,42*7A
$GPRMC,170541.20,A,3700.04295,N,12203.78111,W,0.679,,230413,,,D*6E
$GPGGA,170541.20,3700.04295,N,12203.78111,W,2,06,3.11,272.8,M,-30.6,M,,0000*69
$GPGSV,4,1,14,01,55,273,33,11,42,235,29,13,,,21,14,,,17*75
$GPGSV,4,2,14,18,,,18,23,,,22,24,,,21,25,09,053,*46
$GPGSV,4,3,14,27,11,127,27,30,11,144,16,31,66,096,38,32,59,324,39*7E
$GPGSV,4,4,14,46,41,142,34,51,44,156,40*79
$GPRMC,170541.40,A,3700.04299,N,12203.78107,W,0.145,,230413,,,D*6B
$GPGGA,170541.40,3700.04299,N,12203.78107,W,2,06,3.11,272.3,M,-30.6,M,,0000*6F
$GPGSV,4,1,14,01,55,273,30,11,42,235,29,13,,,20,14,,,17*77
$GPGSV,4,2,14,18,,,18,23,,,21,24,,,20,25,09,053,*44
$GPGSV,4,3,14,27,11,127,26,30,11,144,16,31,66,096,35,32,59,324,37*7C
$GPGSV,4,4,14,46,41,142,34,51,44,156,38*76
$GPRMC,170541.60,A,3700.04300,N,12203.78106,W,0.838,,230413,,,D*6A
$GPGGA,170541.60,3700.04300,N,12203.78106,W,2,06,3.11,272.2,M,-30.6,M,,0000*6C
$GPGSV,4,1,15,01,55,273,30,11,42,235,29,13,,,20,14,,,16*77
$GPGSV,4,2,15,18,,,17,20,,,29,23,,,20,24,,,20*7A
$GPGSV,4,3,15,25,09,053,,27,11,127,26,30,11,144,16,31,66,096,37*7B
$GPGSV,4,4,15,32,59,324,39,46,41,142,34,51,44,156,40*4A
$GPRMC,170541.80,A,3700.04302,N,12203.78103,W,0.794,,230413,,,D*6A
$GPGGA,170541.80,3700.04302,N,12203.78103,W,2,06,3.11,271.9,M,-30.6,M,,0000*6D
$GPGSV,4,1,15,01,55,273,31,11,42,235,29,13,,,19,14,,,16*7C
$GPGSV,4,2,15,18,,,14,20,,,22,23,,,19,24,,,19*72
$GPGSV,4,3,15,25,09,053,,27,11,127,26,30,11,144,16,31,66,096,37*7B
$GPGSV,4,4,15,32,59,324,39,46,41,142,35,51,44,156,40*4B
$GPRMC,170542.00,A,3700.04307,N,12203.78097,W,1.523,312.32,230413,,,D*78
$GPGGA,170542.00,3700.04307,N,12203.78097,W,2,06,3.12,271.6,M,-30.6,M,,0000*63
$GPGSV,4,1,15,01,55,273,31,11,42,235,29,13,,,18,14,,,15*7E
$GPGSV,4,2,15,18,,,13,20,,,22,23,,,19,24,,,18*74
$GPGSV,4,3,15,25,09,053,,27,11,127,26,30,11,144,16,31,66,096,37*7B
$GPGSV,4,4,15,32,59,324,39,46,41,142,35,51,44,156,40*4B
$GPRMC,170542.20,A,3700.04305,N,12203.78096,W,0.846,,230413,,,D*69
$GPGGA,170542.20,3700.04305,N,12203.78096,W,2,06,3.12,271.8,M,-30.6,M,,0000*6C
$GPGSV,4,1,13,01,55,273,31,11,42,235,29,13,,,18,18,,,11*70
$GPGSV,4,2,13,20,,,22,23,,,18,25,09,053,,27,11,127,26*7A
$GPGSV,4,3,13,30,11,144,17,31,66,096,37,32,59,324,39,46,41,142,35*75
$GPGSV,4,4,13,51,44,156,40*49
$GPRMC,170542.40,A,3700.04305,N,12203.78095,W,1.278,,230413,,,D*6A
$GPGGA,170542.40,3700.04305,N,12203.78095,W,2,06,3.12,271.8,M,-30.6,M,,0000*69
$GPGSV,3,1,11,01,55,273,31,11,42,235,29,18,,,11,20,,,21*7F
$GPGSV,3,2,11,25,09,053,,27,11,127,26,30,11,144,17,31,66,096,34*7B
$GPGSV,3,3,11,32,59,324,37,46,41,142,31,51,44,156,38*4A
$GPRMC,170542.60,A,3700.04300,N,12203.78098,W,0.618,,230413,,,D*63
$GPGGA,170542.60,3700.04300,N,12203.78098,W,2,06,3.12,272.2,M,-30.6,M,,0000*6A
$GPGSV,3,1,12,01,55,273,31,11,42,235,29,14,,,29,18,,,11*73
$GPGSV,3,2,12,20,,,20,25,09,053,,27,11,127,26,30,11,144,17*42
$GPGSV,3,3,12,31,66,096,37,32,59,324,40,46,41,142,34,51,44,156,40*7A
$GPRMC,170542.80,A,3700.04301,N,12203.78094,W,0.987,,230413,,,D*69
$GPGGA,170542.80,3700.04301,N,12203.78094,W,2,06,3.12,272.1,M,-30.6,M,,0000*6A
$GPGSV,3,1,12,01,55,273,32,11,42,235,29,14,,,28,18,,,11*71
$GPGSV,3,2,12,20,,,20,25,09,053,,27,11,127,27,30,11,144,18*4C
$GPGSV,3,3,12,31,66,096,40,32,59,324,41,46,41,142,37,51,44,156,41*79
$GPRMC,170543.00,A,3700.04302,N,12203.78091,W,0.523,,230413,,,D*64
$GPGGA,170543.00,3700.04302,N,12203.78091,W,2,06,3.12,272.0,M,-30.6,M,,0000*64
$GPGSV,3,1,12,01,55,273,33,11,42,235,29,14,,,28,18,,,11*70
$GPGSV,3,2,12,20,,,19,25,09,053,,27,11,127,27,30,11,144,18*46
$GPGSV,3,3,12,31,66,096,39,32,59,324,41,46,41,142,36,51,44,156,41*76
$GPRMC,170543.20,A,3700.04306,N,12203.78087,W,0.819,,230413,,,D*61
$GPGGA,170543.20,3700.04306,N,12203.78087,W,2,06,3.12,271.7,M,-30.6,M,,0000*61
$GPGSV,3,1,11,01,55,273,33,11,42,235,30,14,,,27,18,,,11*74
$GPGSV,3,2,11,25,09,053,,27,11,127,27,30,11,144,19,31,66,096,37*77
$GPGSV,3,3,11,32,59,324,41,46,41,142,34,51,44,156,40*41
$GPRMC,170543.40,A,3700.04309,N,12203.78080,W,1.212,,230413,,,D*6F
$GPGGA,170543.40,3700.04309,N,12203.78080,W,2,06,3.12,271.3,M,-30.6,M,,0000*6B
$GPGSV,3,1,10,01,55,273,33,11,42,235,30,14,,,27,25,09,053,*44
$GPGSV,3,2,10,27,11,127,28,30,11,144,19,31,66,096,34,32,59,324,37*7E
$GPGSV,3,3,10,46,41,142,30,51,44,156,35*7B
$GPRMC,170543.60,A,3700.04309,N,12203.78077,W,0.630,,230413,,,D*60
$GPGGA,170543.60,3700.04309,N,12203.78077,W,2,06,3.12,271.2,M,-30.6,M,,0000*60
$GPGSV,4,1,15,01,55,273,33,11,42,235,30,12,,,28,13,,,29*7E
$GPGSV,4,2,15,14,,,26,18,,,23,20,,,26,23,,,29*7E
$GPGSV,4,3,15,25,09,053,,27,11,127,28,30,11,144,19,31,66,096,36*7B
$GPGSV,4,4,15,32,59,324,39,46,41,142,34,51,44,156,39*44
$GPRMC,170543.80,A,3700.04310,N,12203.78077,W,0.475,,230413,,,D*65
$GPGGA,170543.80,3700.04310,N,12203.78077,W,2,06,3.12,271.1,M,-30.6,M,,0000*65
$GPGSV,4,1,15,01,55,273,33,11,42,235,30,12,,,20,13,,,22*7D
$GPGSV,4,2,15,14,,,25,18,,,22,20,,,25,23,,,23*75
$GPGSV,4,3,15,25,09,053,,27,11,127,28,30,11,144,19,31,66,096,37*7A
$GPGSV,4,4,15,32,59,324,39,46,41,142,34,51,44,156,39*44
$GPRMC,170544.00,A,3700.04311,N,12203.78078,W,0.554,,230413,,,D*66
$GPGGA,170544.00,3700.04311,N,12203.78078,W,2,06,3.12,271.0,M,-30.6,M,,0000*65
$GPGSV,4,1,15,01,55,273,33,11,42,235,30,12,,,20,13,,,22*7D
$GPGSV,4,2,15,14,,,25,18,,,22,20,,,25,23,,,22*74
$GPGSV,4,3,15,25,09,053,,27,11,127,28,30,11,144,19,31,66,096,37*7A
$GPGSV,4,4,15,32,59,324,39,46,41,142,34,51,44,156,39*44
$GPRMC,170544.20,A,3700.04311,N,12203.78080,W,0.439,,230413,,,D*69
$GPGGA,170544.20,3700.04311,N,12203.78080,W,2,06,3.12,271.0,M,-30.6,M,,0000*60
$GPGSV,4,1,15,01,55,273,33,11,42,235,30,12,,,20,13,,,22*7D
$GPGSV,4,2,15,14,,,25,18,,,21,20,,,24,23,,,22*76
$GPGSV,4,3,15,25,09,053,,27,11,127,28,30,11,144,20,31,66,096,37*70
$GPGSV,4,4,15,32,59,324,39,46,41,142,34,51,44,156,39*44
$GPRMC,170544.40,A,3700.04310,N,12203.78082,W,0.516,,230413,,,D*60
$GPGGA,170544.40,3700.04310,N,12203.78082,W,2,06,3.12,271.1,M,-30.6,M,,0000*64
$GPGSV,4,1,15,01,55,273,33,11,42,235,30,12,,,20,13,,,21*7E
$GPGSV,4,2,15,14,,,24,18,,,20,20,,,24,23,,,22*76
$GPGSV,4,3,15,25,09,053,,27,11,127,28,30,11,144,20,31,66,096,37*70
$GPGSV,4,4,15,32,59,324,39,46,41,142,33,51,44,156,38*42
$GPRMC,170544.60,A,3700.04314,N,12203.78081,W,0.348,,230413,,,D*68
$GPGGA,170544.60,3700.04314,N,12203.78081,W,2,06,3.12,270.8,M,-30.6,M,,0000*69
$GPGSV,4,1,15,01,55,273,33,11,42,235,30,12,,,20,13,,,21*7E
$GPGSV,4,2,15,14,,,23,18,,,20,20,,,23,23,,,21*75
$GPGSV,4,3,15,25,09,053,,27,11,127,28,30,11,144,20,31,66,096,39*7E
$GPGSV,4,4,15,32,59,324,40,46,41,142,33,51,44,156,38*4C
$GPRMC,170544.80,A,3700.04315,N,12203.78081,W,0.177,,230413,,,D*69
$GPGGA,170544.80,3700.04315,N,12203.78081,W,2,06,3.12,270.7,M,-30.6,M,,0000*69
$GPGSV,4,1,15,01,55,273,33,11,42,235,30,12,,,19,13,,,21*74
$GPGSV,4,2,15,14,,,22,18,,,19,20,,,23,23,,,21*7E
$GPGSV,4,3,15,25,09,053,,27,11,127,28,30,11,144,20,31,66,096,39*7E
$GPGSV,4,4,15,32,59,324,40,46,41,142,33,51,44,156,38*4C
$GPRMC,170545.00,A,3700.04314,N,12203.78081,W,0.415,,230413,,,D*60
$GPGGA,170545.00,3700.04314,N,12203.78081,W,2,06,3.12,270.6,M,-30.6,M,,0000*60
$GPGSV,4,1,13,01,55,273,34,11,42,235,30,13,,,21,14,,,21*78
$GPGSV,4,2,13,20,,,23,23,,,21,25,09,053,,27,11,127,28*7F
$GPGSV,4,3,13,30,11,144,21,31,66,096,38,32,59,324,40,46,41,142,33*77
$GPGSV,4,4,13,51,44,156,38*46
$GPRMC,170545.20,A,3700.04319,N,12203.78078,W,0.454,,230413,,,D*6C
$GPGGA,170545.20,3700.04319,N,12203.78078,W,2,06,3.12,270.3,M,-30.6,M,,0000*6C
$GPGSV,4,1,13,01,55,273,34,11,42,235,30,13,,,21,14,,,20*79
$GPGSV,4,2,13,20,,,22,23,,,20,25,09,053,,27,11,127,28*7F
$GPGSV,4,3,13,30,11,144,21,31,66,096,38,32,59,324,40,46,41,142,33*77
$GPGSV,4,4,13,51,44,156,38*46
$GPRMC,170545.40,A,3700.04304,N,12203.78091,W,0.951,,230413,,,D*69
$GPGGA,170545.40,3700.04304,N,12203.78091,W,2,06,3.12,271.3,M,-30.6,M,,0000*60
$GPGSV,4,1,13,01,55,273,33,11,42,235,30,13,,,20,14,,,20*7F
$GPGSV,4,2,13,20,,,22,23,,,20,25,09,053,,27,11,127,27*70
$GPGSV,4,3,13,30,11,144,21,31,66,096,32,32,59,324,36,46,41,142,33*7C
$GPGSV,4,4,13,51,44,156,35*4B
$GPRMC,170545.60,A,3700.04304,N,12203.78095,W,0.169,,230413,,,D*6C
$GPGGA,170545.60,3700.04304,N,12203.78095,W,2,06,3.12,271.4,M,-30.6,M,,0000*61
$GPGSV,4,1,13,01,55,273,31,11,42,235,29,13,,,20,14,,,19*7F
$GPGSV,4,2,13,20,,,22,23,,,19,25,09,053,,27,11,127,27*7A
$GPGSV,4,3,13,30,11,144,21,31,66,096,36,32,59,324,39,46,41,142,32*76
$GPGSV,4,4,13,51,44,156,38*46
$GPRMC,170545.80,A,3700.04307,N,12203.78096,W,0.419,,230413,,,D*60
$GPGGA,170545.80,3700.04307,N,12203.78096,W,2,06,3.12,271.3,M,-30.6,M,,0000*68
$GPGSV,4,1,13,01,55,273,31,11,42,235,29,13,,,19,14,,,18*74
$GPGSV,4,2,13,20,,,22,23,,,19,25,09,053,,27,11,127,27*7A
$GPGSV,4,3,13,30,11,144,21,31,66,096,36,32,59,324,39,46,41,142,32*76
$GPGSV,4,4,13,51,44,156,38*46
$GPRMC,170546.00,A,3700.04310,N,12203.78095,W,0.721,,230413,,,D*66
$GPGGA,170546.00,3700.04310,N,12203.78095,W,2,06,3.12,271.1,M,-30.6,M,,0000*64
$GPGSV,4,1,13,01,55,273,32,11,42,235,29,13,,,18,14,,,18*76
$GPGSV,4,2,13,20,,,21,23,,,18,25,09,053,,27,11,127,27*78
$GPGSV,4,3,13,30,11,144,21,31,66,096,36,32,59,324,39,46,41,142,32*76
$GPGSV,4,4,13,51,44,156,38*46
$GPRMC,170546.20,A,3700.04311,N,12203.78095,W,0.297,,230413,,,D*6D
$GPGGA,170546.20,3700.04311,N,12203.78095,W,2,06,3.12,271.1,M,-30.6,M,,0000*67
$GPGSV,3,1,12,01,55,273,32,11,42,235,29,13,,,17,20,,,21*72
$GPGSV,3,2,12,23,,,18,25,09,053,,27,11,127,26,30,11,144,21*4F
$GPGSV,3,3,12,31,66,096,36,32,59,324,39,46,41,142,32,51,44,156,37*73
$GPRMC,170546.40,A,3700.04312,N,12203.78095,W,0.724,,230413,,,D*65
$GPGGA,170546.40,3700.04312,N,12203.78095,W,2,06,3.12,271.1,M,-30.6,M,,0000*62
$GPGSV,3,1,10,01,55,273,28,11,42,235,29,20,,,20,25,09,053,*46
$GPGSV,3,2,10,27,11,127,27,30,11,144,21,31,66,096,31,32,59,324,33*7B
$GPGSV,3,3,10,46,41,142,29,51,44,156,31*77
$GPRMC,170546.60,A,3700.04320,N,12203.78093,W,0.429,,230413,,,D*6E
$GPGGA,170546.60,3700.04320,N,12203.78093,W,2,06,3.12,270.8,M,-30.6,M,,0000*6F
$GPGSV,3,1,10,01,55,273,33,11,42,235,29,20,,,20,25,09,053,*4C
$GPGSV,3,2,10,27,11,127,26,30,11,144,21,31,66,096,37,32,59,324,40*78
$GPGSV,3,3,10,46,41,142,33,51,44,156,37*7A
$GPRMC,170546.80,A,3700.04329,N,12203.78090,W,0.203,,230413,,,D*64
$GPGGA,170546.80,3700.04329,N,12203.78090,W,2,06,3.12,270.3,M,-30.6,M,,0000*60
$GPGSV,3,1,10,01,55,273,33,11,42,235,29,20,,,19,25,09,053,*46
$GPGSV,3,2,10,27,11,127,26,30,11,144,21,31,66,096,37,32,59,324,40*78
$GPGSV,3,3,10,46,41,142,33,51,44,156,38*75
$GPRMC,170547.00,A,3700.04339,N,12203.78086,W,0.441,,230413,,,D*6B
$GPGGA,170547.00,3700.04339,N,12203.78086,W,2,06,3.12,269.8,M,-30.6,M,,0000*6C
$GPGSV,3,1,09,01,55,273,33,11,42,235,29,25,09,053,,27,11,127,26*71
$GPGSV,3,2,09,30,11,144,21,31,66,096,37,32,59,324,40,46,41,142,33*75
$GPGSV,3,3,09,51,44,156,38*4D
$GPRMC,170547.20,A,3700.04345,N,12203.78085,W,0.153,,230413,,,D*67
$GPGGA,170547.20,3700.04345,N,12203.78085,W,2,06,3.12,269.5,M,-30.6,M,,0000*6B
$GPGSV,3,1,09,01,55,273,33,11,42,235,29,25,09,053,,27,11,127,26*71
$GPGSV,3,2,09,30,11,144,21,31,66,096,37,32,59,324,40,46,41,142,33*75
$GPGSV,3,3,09,51,44,156,38*4D
$GPRMC,170547.40,A,3700.04340,N,12203.78092,W,0.692,,230413,,,D*68
$GPGGA,170547.40,3700.04340,N,12203.78092,W,2,06,3.12,269.9,M,-30.6,M,,0000*62
$GPGSV,3,1,09,01,55,273,33,11,42,235,29,25,09,053,,27,11,127,26*71
$GPGSV,3,2,09,30,11,144,20,31,66,096,34,32,59,324,36,46,41,142,32*77
$GPGSV,3,3,09,51,44,156,36*43
$GPRMC,170547.60,A,3700.04338,N,12203.78095,W,1.090,,230413,,,D*67
$GPGGA,170547.60,3700.04338,N,12203.78095,W,2,06,3.12,269.8,M,-30.6,M,,0000*69
$GPGSV,3,1,09,01,55,273,29,11,42,235,21,25,09,053,,27,11,127,26*72
$GPGSV,3,2,09,30,11,144,20,31,66,096,31,32,59,324,34,46,41,142,28*7B
$GPGSV,3,3,09,51,44,156,33*46
$GPRMC,170547.80,A,3700.04339,N,12203.78096,W,0.027,,230413,,,D*66
$GPGGA,170547.80,3700.04339,N,12203.78096,W,2,06,3.12,269.8,M,-30.6,M,,0000*65
$GPGSV,3,1,09,01,55,273,33,11,42,235,29,25,09,053,,27,11,127,26*71
$GPGSV,3,2,09,30,11,144,21,31,66,096,37,32,59,324,41,46,41,142,33*74
$GPGSV,3,3,09,51,44,156,38*4D
$GPRMC,170548.00,A,3700.04344,N,12203.78096,W,0.541,,230413,,,D*6E
$GPGGA,170548.00,3700.04344,N,12203.78096,W,2,06,3.12,269.7,M,-30.6,M,,0000*67
$GPGSV,3,1,09,01,55,273,33,11,42,235,29,25,09,053,,27,11,127,25*72
$GPGSV,3,2,09,30,11,144,21,31,66,096,37,32,59,324,40,46,41,142,33*75
$GPGSV,3,3,09,51,44,156,38*4D
$GPRMC,170548.20,A,3700.04346,N,12203.78098,W,0.589,,230413,,,D*64
$GPGGA,170548.20,3700.04346,N,12203.78098,W,2,06,3.12,269.7,M,-30.6,M,,0000*69
$GPGSV,3,1,10,01,55,273,34,11,42,235,29,15,,,25,25,09,053,*48
$GPGSV,3,2,10,27,11,127,25,30,11,144,21,31,66,096,38,32,59,324,41*75
$GPGSV,3,3,10,46,41,142,33,51,44,156,40*7A
$GPRMC,170548.40,A,3700.04344,N,12203.78103,W,1.104,,230413,,,D*63
$GPGGA,170548.40,3700.04344,N,12203.78103,W,2,06,3.12,270.0,M,-30.6,M,,0000*61
$GPGSV,3,1,10,01,55,273,34,11,42,235,29,15,,,25,25,09,053,*48
$GPGSV,3,2,10,27,11,127,25,30,11,144,21,31,66,096,37,32,59,324,40*7B
$GPGSV,3,3,10,46,41,142,33,51,44,156,38*75
$GPRMC,170548.60,A,3700.04340,N,12203.78106,W,1.783,263.20,230413,,,D*72
$GPGGA,170548.60,3700.04340,N,12203.78106,W,2,06,3.12,270.0,M,-30.6,M,,0000*62
$GPGSV,3,1,11,01,55,273,33,11,42,235,29,15,,,24,22,,,33*77
$GPGSV,3,2,11,25,09,053,,27,11,127,25,30,11,144,21,31,66,096,37*7E
$GPGSV,3,3,11,32,59,324,40,46,41,142,32,51,44,156,38*49
$GPRMC,170548.80,A,3700.04336,N,12203.78109,W,0.899,,230413,,,D*6C
$GPGGA,170548.80,3700.04336,N,12203.78109,W,2,06,3.12,270.2,M,-30.6,M,,0000*60
$GPGSV,3,1,11,01,55,273,33,11,42,235,29,15,,,24,22,,,23*76
$GPGSV,3,2,11,25,09,053,,27,11,127,25,30,11,144,21,31,66,096,37*7E
$GPGSV,3,3,11,32,59,324,40,46,41,142,32,51,44,156,38*49
$GPRMC,170549.00,A,3700.04335,N,12203.78113,W,1.229,,230413,,,D*6D
$GPGGA,170549.00,3700.04335,N,12203.78113,W,2,06,3.12,270.3,M,-30.6,M,,0000*60
$GPGSV,3,1,11,01,55,273,33,11,42,235,29,15,,,23,22,,,23*71
$GPGSV,3,2,11,25,09,053,,27,11,127,24,30,11,144,21,31,66,096,37*7F
$GPGSV,3,3,11,32,59,324,40,46,41,142,32,51,44,156,38*49
$GPRMC,170549.20,A,3700.04334,N,12203.78115,W,1.202,,230413,,,D*61
$GPGGA,170549.20,3700.04334,N,12203.78115,W,2,06,3.12,270.3,M,-30.6,M,,0000*65
$GPGSV,3,1,11,01,55,273,33,11,42,235,29,15,,,23,22,,,23*71
$GPGSV,3,2,11,25,09,053,,27,11,127,24,30,11,143,21,31,66,096,37*78
$GPGSV,3,3,11,32,59,324,40,46,41,142,32,51,44,156,37*46
$GPRMC,170549.40,A,3700.04342,N,12203.78107,W,1.228,,230413,,,D*6D
$GPGGA,170549.40,3700.04342,N,12203.78107,W,2,06,3.12,269.7,M,-30.6,M,,0000*6D
$GPGSV,3,1,11,01,55,273,29,11,42,235,29,15,,,23,22,,,22*7B
$GPGSV,3,2,11,25,09,053,,27,11,127,24,30,11,143,21,31,66,095,35*79
$GPGSV,3,3,11,32,59,324,36,46,41,142,32,51,44,156,35*45
$GPRMC,170549.60,A,3700.04340,N,12203.78112,W,1.482,244.43,230413,,,D*74
$GPGGA,170549.60,3700.04340,N,12203.78112,W,2,06,3.12,269.5,M,-30.6,M,,0000*6B
$GPGSV,3,1,12,01,55,273,36,11,42,235,29,15,,,23,17,,,25*77
$GPGSV,3,2,12,22,,,22,25,09,053,,27,11,127,24,30,11,143,22*41
$GPGSV,3,3,12,31,66,095,40,32,60,324,42,46,41,142,35,51,44,156,41*71
$GPRMC,170549.80,A,3700.04336,N,12203.78121,W,1.082,,230413,,,D*64
$GPGGA,170549.80,3700.04336,N,12203.78121,W,2,06,3.12,269.6,M,-30.6,M,,0000*67
$GPGSV,4,1,16,01,55,273,36,11,42,235,29,15,,,22,17,,,24*74
$GPGSV,4,2,16,18,,,28,19,,,27,22,,,22,23,,,26*73
$GPGSV,4,3,16,24,,,25,25,09,053,,27,11,127,24,30,11,143,21*41
$GPGSV,4,4,16,31,66,095,39,32,60,324,43,46,41,142,34,51,44,156,41*7B
$GPRMC,170550.00,A,3700.04328,N,12203.78131,W,1.534,232.61,230413,,,D*78
$GPGGA,170550.00,3700.04328,N,12203.78131,W,2,06,3.12,270.0,M,-30.6,M,,0000*67
$GPGSV,4,1,16,01,55,273,35,11,42,235,29,15,,,22,17,,,23*70
$GPGSV,4,2,16,18,,,27,19,,,26,22,,,21,23,,,25*7D
$GPGSV,4,3,16,24,,,25,25,09,053,,27,11,127,24,30,11,143,21*41
$GPGSV,4,4,16,31,66,095,39,32,60,324,42,46,41,142,34,51,44,156,41*7A
$GPRMC,170550.20,A,3700.04324,N,12203.78137,W,1.315,,230413,,,D*6F
$GPGGA,170550.20,3700.04324,N,12203.78137,W,2,06,3.12,270.1,M,-30.6,M,,0000*6E
$GPGSV,4,1,16,01,55,273,35,11,42,235,28,15,,,21,17,,,22*73
$GPGSV,4,2,16,18,,,26,19,,,25,22,,,21,23,,,24*7E
$GPGSV,4,3,16,24,,,24,25,09,053,,27,11,127,24,30,11,143,21*40
$GPGSV,4,4,16,31,66,095,38,32,60,324,41,46,41,142,33,51,44,156,38*71
$GPRMC,170550.40,A,3700.04313,N,12203.78146,W,1.840,224.11,230413,,,D*7A
$GPGGA,170550.40,3700.04313,N,12203.78146,W,2,06,3.13,270.7,M,-30.6,M,,0000*6D
$GPGSV,4,1,16,01,55,273,34,11,42,235,28,15,,,21,17,,,22*72
$GPGSV,4,2,16,18,,,25,19,,,25,22,,,21,23,,,24*7D
$GPGSV,4,3,16,24,,,23,25,09,053,,27,11,127,24,30,11,143,21*47
$GPGSV,4,4,16,31,66,095,38,32,60,324,40,46,41,142,33,51,44,156,38*70
$GPRMC,170550.60,A,3700.04308,N,12203.78149,W,1.154,,230413,,,D*6B
$GPGGA,170550.60,3700.04308,N,12203.78149,W,2,06,3.13,270.7,M,-30.6,M,,0000*6A
$GPGSV,4,1,16,01,55,273,34,11,42,235,28,15,,,21,17,,,22*72
$GPGSV,4,2,16,18,,,25,19,,,24,22,,,20,23,,,23*7A
$GPGSV,4,3,16,24,,,23,25,09,053,,27,11,127,24,30,11,143,21*47
$GPGSV,4,4,16,31,66,095,38,32,60,324,41,46,41,142,33,51,44,156,40*7E
$GPRMC,170550.80,A,3700.04302,N,12203.78155,W,1.886,221.12,230413,,,D*78
$GPGGA,170550.80,3700.04302,N,12203.78155,W,2,06,3.13,270.9,M,-30.6,M,,0000*6D
$GPGSV,4,1,16,01,55,273,34,11,42,235,28,15,,,21,17,,,22*72
$GPGSV,4,2,16,18,,,24,19,,,24,22,,,20,23,,,23*7B
$GPGSV,4,3,16,24,,,22,25,09,053,,27,11,127,25,30,11,143,21*47
$GPGSV,4,4,16,31,66,095,38,32,60,324,41,46,41,142,33,51,44,156,40*7E
$GPRMC,170551.00,A,3700.04290,N,12203.78163,W,0.919,,230413,,,D*64
$GPGGA,170551.00,3700.04290,N,12203.78163,W,2,06,3.13,271.5,M,-30.6,M,,0000*66
$GPGSV,4,1,16,01,55,273,34,11,42,235,29,15,,,21,17,,,22*73
$GPGSV,4,2,16,18,,,24,19,,,23,22,,,20,23,,,23*7C
$GPGSV,4,3,16,24,,,22,25,09,053,,27,11,127,25,30,11,143,21*47
$GPGSV,4,4,16,31,66,095,38,32,60,324,41,46,41,142,32,51,44,156,40*7F
$GPRMC,170551.20,A,3700.04286,N,12203.78166,W,1.190,,230413,,,D*6C
$GPGGA,170551.20,3700.04286,N,12203.78166,W,2,06,3.13,271.7,M,-30.6,M,,0000*64
$GPGSV,4,1,16,01,55,273,34,11,42,235,29,15,,,21,17,,,22*73
$GPGSV,4,2,16,18,,,24,19,,,23,22,,,20,23,,,22*7D
$GPGSV,4,3,16,24,,,22,25,09,053,,27,11,127,25,30,11,143,21*47
$GPGSV,4,4,16,31,66,095,38,32,60,324,41,46,41,142,32,51,44,156,40*7F
$GPRMC,170551.40,A,3700.04273,N,12203.78178,W,1.326,,230413,,,D*60
$GPGGA,170551.40,3700.04273,N,12203.78178,W,2,06,3.13,272.7,M,-30.6,M,,0000*64
$GPGSV,4,1,16,01,55,273,31,11,42,235,28,15,,,21,17,,,21*74
$GPGSV,4,2,16,18,,,23,19,,,22,22,,,20,23,,,22*7B
$GPGSV,4,3,16,24,,,22,25,09,053,,27,11,127,24,30,11,143,21*46
$GPGSV,4,4,16,31,66,095,32,32,60,324,34,46,41,142,28,51,44,156,32*79
$GPRMC,170551.60,A,3700.04267,N,12203.78185,W,1.953,215.66,230413,,,D*75
$GPGGA,170551.60,3700.04267,N,12203.78185,W,2,06,3.13,273.0,M,-30.6,M,,0000*67
$GPGSV,4,1,16,01,55,273,32,11,42,235,28,15,,,20,17,,,20*77
$GPGSV,4,2,16,18,,,22,19,,,22,22,,,19,23,,,22*70
$GPGSV,4,3,16,24,,,21,25,09,053,,27,11,127,24,30,11,143,21*45
$GPGSV,4,4,16,31,66,095,36,32,60,324,39,46,41,142,28,51,44,156,37*75
$GPRMC,170551.80,A,3700.04259,N,12203.78190,W,1.797,214.17,230413,,,D*73
$GPGGA,170551.80,3700.04259,N,12203.78190,W,2,06,3.13,273.2,M,-30.6,M,,0000*62
$GPGSV,4,1,16,01,55,273,32,11,42,235,28,15,,,20,17,,,20*77
$GPGSV,4,2,16,18,,,21,19,,,21,22,,,18,23,,,21*72
$GPGSV,4,3,16,24,,,20,25,09,053,,27,11,127,24,30,11,143,21*44
$GPGSV,4,4,16,31,66,095,38,32,60,324,41,46,41,142,29,51,44,156,39*7B
$GPRMC,170552.00,A,3700.04256,N,12203.78191,W,1.041,,230413,,,D*65
$GPGGA,170552.00,3700.04256,N,12203.78191,W,2,06,3.13,273.2,M,-30.6,M,,0000*67
$GPGSV,4,1,15,01,55,273,35,11,42,235,28,17,,,19,18,,,20*74
$GPGSV,4,2,15,19,,,20,22,,,17,23,,,20,24,,,19*7A
$GPGSV,4,3,15,25,09,053,,27,11,127,24,30,11,143,22,31,66,095,38*75
$GPGSV,4,4,15,32,60,324,41,46,41,142,33,51,44,156,40*48
