$GPRMC,170426.000,A,3700.0640,N,12203.7551,W,0.00,5.12,230413,,,D*7C
$GPVTG,5.12,T,,M,0.00,N,0.00,K,D*3E
$GPGGA,170427.000,3700.0640,N,12203.7551,W,2,5,1.79,1.4,M,-26.6,M,0000,0000*68
$GPGSA,A,3,01,31,11,22,32,,,,,,,,2.03,1.79,0.95*02
$GPRMC,170427.000,A,3700.0640,N,12203.7551,W,0.00,5.12,230413,,,D*7D
$GPVTG,5.12,T,,M,0.00,N,0.00,K,D*3E
$GPGGA,170428.000,3700.0640,N,12203.7551,W,2,5,1.79,1.4,M,-26.6,M,0000,0000*67
$GPGSA,A,3,01,31,11,22,32,,,,,,,,2.03,1.79,0.95*02
$GPRMC,170428.000,A,3700.0640,N,12203.7551,W,0.00,5.12,230413,,,D*72
$GPVTG,5.12,T,,M,0.00,N,0.00,K,D*3E
$GPGGA,170429.000,3700.0640,N,12203.7551,W,2,5,1.79,1.4,M,-26.6,M,0000,0000*66
$GPGSA,A,3,01,31,11,22,32,,,,,,,,2.03,1.79,0.95*02
$GPGSV,2,1,07,31,66,098,36,32,59,324,30,01,55,274,29,48,45,197,38*72
$GPGSV,2,2,07,11,42,236,30,22,16,112,20,25,09,054,*44
$GPRMC,170429.000,A,3700.0640,N,12203.7551,W,0.00,5.12,230413,,,D*73
$GPVTG,5.12,T,,M,0.00,N,0.00,K,D*3E
$GPGGA,170430.000,3700.0640,N,12203.7551,W,2,5,1.79,1.4,M,-26.6,M,0000,0000*6E
$GPGSA,A,3,01,31,11,22,32,,,,,,,,2.03,1.79,0.95*02
$GPRMC,170430.000,A,3700.0640,N,12203.7551,W,0.00,5.12,230413,,,D*7B
$GPVTG,5.12,T,,M,0.00,N,0.00,K,D*3E
$GPGGA,170431.000,3700.0640,N,12203.7551,W,2,5,1.79,1.4,M,-26.6,M,0000,0000*6F
$GPGSA,A,3,01,31,11,22,32,,,,,,,,2.03,1.79,0.95*02
$GPRMC,170431.000,A,3700.0640,N,12203.7551,W,0.00,5.12,230413,,,D*7A
$GPVTG,5.12,T,,M,0.00,N,0.00,K,D*3E
$GPGGA,170432.000,3700.0640,N,12203.7551,W,2,5,1.79,1.4,M,-26.6,M,0000,0000*6C
$GPGSA,A,3,01,31,11,22,32,,,,,,,,2.03,1.79,0.95*02
$GPRMC,170432.000,A,3700.0640,N,12203.7551,W,0.00,5.12,230413,,,D*79
$GPVTG,5.12,T,,M,0.00,N,0.00,K,D*3E
$GPGGA,170433.000,3700.0640,N,12203.7551,W,2,5,1.79,1.4,M,-26.6,M,0000,0000*6D
$GPGSA,A,3,01,31,11,22,32,,,,,,,,2.03,1.79,0.95*02
$GPRMC,170433.000,A,3700.0640,N,12203.7551,W,0.00,5.12,230413,,,D*78
$GPVTG,5.12,T,,M,0.00,N,0.00,K,D*3E
$GPGGA,170434.000,3700.0640,N,12203.7551,W,2,5,1.79,1.4,M,-26.6,M,0000,0000*6A
$GPGSA,A,3,01,31,11,22,32,,,,,,,,2.03,1.79,0.95*02
$GPGSV,2,1,07,31,66,098,36,32,59,324,31,01,55,274,30,48,45,197,39*7A
$GPGSV,2,2,07,11,42,236,30,22,16,112,23,25,09,054,*47
$GPRMC,170434.000,A,3700.0640,N,12203.7551,W,0.00,5.12,230413,,,D*7F
$GPVTG,5.12,T,,M,0.00,N,0.00,K,D*3E
$GPGGA,170435.000,3700.0640,N,12203.7551,W,2,5,1.79,1.4,M,-26.6,M,0000,0000*6B
$GPGSA,A,3,01,31,11,22,32,,,,,,,,2.03,1.79,0.95*02
$GPRMC,170435.000,A,3700.0640,N,12203.7551,W,0.00,5.12,230413,,,D*7E
$GPVTG,5.12,T,,M,0.00,N,0.00,K,D*3E
$GPGGA,170436.000,3700.0640,N,12203.7551,W,2,5,1.79,1.4,M,-26.6,M,0000,0000*68
$GPGSA,A,3,01,31,11,22,32,,,,,,,,2.02,1.79,0.95*03
$GPRMC,170436.000,A,3700.0640,N,12203.7551,W,0.00,5.12,230413,,,D*7D
$GPVTG,5.12,T,,M,0.00,N,0.00,K,D*3E
$GPGGA,170437.000,3700.0640,N,12203.7551,W,2,5,1.79,1.4,M,-26.6,M,0000,0000*69
$GPGSA,A,3,01,31,11,22,32,,,,,,,,2.02,1.79,0.95*03
$GPRMC,170437.000,A,3700.0640,N,12203.7551,W,0.00,5.12,230413,,,D*7C
$GPVTG,5.12,T,,M,0.00,N,0.00,K,D*3E
$GPGGA,170438.000,3700.0640,N,12203.7551,W,2,5,1.79,1.4,M,-26.6,M,0000,0000*66
$GPGSA,A,3,01,31,11,22,32,,,,,,,,2.03,1.79,0.95*02
$GPRMC,170438.000,A,3700.0640,N,12203.7551,W,0.00,5.12,230413,,,D*73
$GPVTG,5.12,T,,M,0.00,N,0.00,K,D*3E
$GPGGA,170439.000,3700.0640,N,12203.7551,W,2,5,1.79,1.4,M,-26.6,M,0000,0000*67
$GPGSA,A,3,01,31,11,22,32,,,,,,,,2.02,1.79,0.95*03
$GPGSV,2,1,07,31,66,098,38,32,59,324,32,01,55,274,29,48,45,197,39*7F
$GPGSV,2,2,07,11,42,236,29,22,16,112,26,25,09,054,*4A
$GPRMC,170439.000,A,3700.0640,N,12203.7551,W,0.00,5.12,230413,,,D*72
$GPVTG,5.12,T,,M,0.00,N,0.00,K,D*3E
$GPGGA,170440.000,3700.0640,N,12203.7551,W,2,5,1.79,1.4,M,-26.6,M,0000,0000*69
$GPGSA,A,3,01,31,11,22,32,,,,,,,,2.02,1.79,0.95*03
$GPRMC,170440.000,A,3700.0640,N,12203.7551,W,0.00,5.12,230413,,,D*7C
$GPVTG,5.12,T,,M,0.00,N,0.00,K,D*3E
$GPGGA,170441.000,3700.0640,N,12203.7551,W,2,5,1.79,1.4,M,-26.6,M,0000,0000*68
$GPGSA,A,3,01,31,11,22,32,,,,,,,,2.02,1.79,0.95*03
$GPRMC,170441.000,A,3700.0640,N,12203.7551,W,0.00,5.12,230413,,,D*7D
$GPVTG,5.12,T,,M,0.00,N,0.00,K,D*3E
$GPGGA,170442.000,3700.0640,N,12203.7551,W,2,5,1.79,1.4,M,-26.6,M,0000,0000*6B
$GPGSA,A,3,01,31,11,22,32,,,,,,,,2.02,1.79,0.95*03
$GPRMC,170442.000,A,3700.0640,N,12203.7551,W,0.00,5.12,230413,,,D*7E
$GPVTG,5.12,T,,M,0.00,N,0.00,K,D*3E
$GPGGA,170443.000,3700.0640,N,12203.7551,W,2,5,1.79,1.4,M,-26.6,M,0000,0000*6A
$GPGSA,A,3,01,31,11,22,32,,,,,,,,2.02,1.79,0.95*03
$GPRMC,170443.000,A,3700.0640,N,12203.7551,W,0.00,5.12,230413,,,D*7F
$GPVTG,5.12,T,,M,0.00,N,0.00,K,D*3E
$GPGGA,170444.000,3700.0640,N,12203.7551,W,2,5,1.79,1.4,M,-26.6,M,0000,0000*6D
$GPGSA,A,3,01,31,11,22,32,,,,,,,,2.02,1.79,0.95*03
$GPGSV,2,1,07,31,66,098,39,32,59,324,32,01,55,274,29,48,45,197,40*70
$GPGSV,2,2,07,11,42,236,27,22,16,112,27,25,09,054,*45
$GPRMC,170444.000,A,3700.0640,N,12203.7551,W,0.00,5.12,230413,,,D*78
$GPVTG,5.12,T,,M,0.00,N,0.00,K,D*3E
$GPGGA,170445.000,3700.0640,N,12203.7551,W,2,5,1.79,1.4,M,-26.6,M,0000,0000*6C
$GPGSA,A,3,01,31,11,22,32,,,,,,,,2.02,1.79,0.95*03
$GPRMC,170445.000,A,3700.0640,N,12203.7551,W,0.00,5.12,230413,,,D*79
$GPVTG,5.12,T,,M,0.00,N,0.00,K,D*3E
$GPGGA,170446.000,3700.0640,N,12203.7551,W,2,5,1.79,1.4,M,-26.6,M,0000,0000*6F
$GPGSA,A,3,01,31,11,22,32,,,,,,,,2.02,1.79,0.95*03
$GPRMC,170446.000,A,3700.0640,N,12203.7551,W,0.00,5.12,230413,,,D*7A
$GPVTG,5.12,T,,M,0.00,N,0.00,K,D*3E
$GPGGA,170447.000,3700.0640,N,12203.7551,W,2,5,1.79,1.4,M,-26.6,M,0000,0000*6E
$GPGSA,A,3,01,31,11,22,32,,,,,,,,2.02,1.79,0.95*03
$GPRMC,170447.000,A,3700.0640,N,12203.7551,W,0.00,5.12,230413,,,D*7B
$GPVTG,5.12,T,,M,0.00,N,0.00,K,D*3E
$GPGGA,170448.000,3700.0640,N,12203.7551,W,2,5,1.79,1.4,M,-26.6,M,0000,0000*61
$GPGSA,A,3,01,31,11,22,32,,,,,,,,2.02,1.79,0.95*03
$GPRMC,170448.000,A,3700.0640,N,12203.7551,W,0.00,5.12,230413,,,D*74
$GPVTG,5.12,T,,M,0.00,N,0.00,K,D*3E
$GPGGA,170449.000,3700.0640,N,12203.7551,W,2,5,1.79,1.4,M,-26.6,M,0000,0000*60
$GPGSA,A,3,01,31,11,22,32,,,,,,,,2.02,1.79,0.95*03
$GPGSV,2,1,07,31,66,098,39,32,59,324,33,01,55,274,29,48,45,197,39*7F
$GPGSV,2,2,07,11,42,236,24,22,16,112,28,25,09,054,*49
$GPRMC,170449.000,A,3700.0640,N,12203.7551,W,0.00,5.12,230413,,,D*75
$GPVTG,5.12,T,,M,0.00,N,0.00,K,D*3E
$GPGGA,170450.000,3700.0640,N,12203.7551,W,2,5,1.79,1.4,M,-26.6,M,0000,0000*68
$GPGSA,A,3,01,31,11,22,32,,,,,,,,2.02,1.79,0.95*03
$GPRMC,170450.000,A,3700.0640,N,12203.7551,W,0.00,5.12,230413,,,D*7D
$GPVTG,5.12,T,,M,0.00,N,0.00,K,D*3E
$GPGGA,170451.000,3700.0640,N,12203.7551,W,2,5,1.79,1.4,M,-26.6,M,0000,0000*69
$GPGSA,A,3,01,31,11,22,32,,,,,,,,2.02,1.79,0.95*03
$GPRMC,170451.000,A,3700.0640,N,12203.7551,W,0.00,5.12,230413,,,D*7C
$GPVTG,5.12,T,,M,0.00,N,0.00,K,D*3E
$GPGGA,170452.000,3700.0640,N,12203.7551,W,2,5,1.79,1.4,M,-26.6,M,0000,0000*6A
$GPGSA,A,3,01,31,11,22,32,,,,,,,,2.02,1.79,0.95*03
$GPRMC,170452.000,A,3700.0640,N,12203.7551,W,0.00,5.12,230413,,,D*7F
$GPVTG,5.12,T,,M,0.00,N,0.00,K,D*3E
$GPGGA,170453.000,3700.0640,N,12203.7551,W,2,5,1.79,1.4,M,-26.6,M,0000,0000*6B
$GPGSA,A,3,01,31,11,22,32,,,,,,,,2.02,1.79,0.95*03
$GPRMC,170453.000,A,3700.0640,N,12203.7551,W,0.00,5.12,230413,,,D*7E
$GPVTG,5.12,T,,M,0.00,N,0.00,K,D*3E
$GPGGA,170454.000,3700.0640,N,12203.7551,W,2,4,3.19,1.4,M,-26.6,M,0000,0000*69
$GPGSA,A,3,01,31,22,32,,,,,,,,,3.33,3.19,0.95*04
$GPGSV,2,1,07,31,66,097,39,32,59,324,32,01,55,274,29,48,45,197,37*7F
$GPGSV,2,2,07,11,42,236,17,22,16,112,28,25,09,054,*49
$GPRMC,170454.000,A,3700.0640,N,12203.7551,W,0.00,5.12,230413,,,D*79
$GPVTG,5.12,T,,M,0.00,N,0.00,K,D*3E
$GPGGA,170455.000,3700.0640,N,12203.7551,W,2,4,3.18,1.4,M,-26.6,M,0000,0000*69
$GPGSA,A,3,01,31,22,32,,,,,,,,,3.32,3.18,0.95*04
$GPRMC,170455.000,A,3700.0640,N,12203.7551,W,0.00,5.12,230413,,,D*78
$GPVTG,5.12,T,,M,0.00,N,0.00,K,D*3E
$GPGGA,170456.000,3700.0640,N,12203.7551,W,2,4,3.18,1.4,M,-26.6,M,0000,0000*6A
$GPGSA,A,3,01,31,22,32,,,,,,,,,3.32,3.18,0.95*04
$GPRMC,170456.000,A,3700.0640,N,12203.7551,W,0.00,5.12,230413,,,D*7B
$GPVTG,5.12,T,,M,0.00,N,0.00,K,D*3E
$GPGGA,170457.000,3700.0640,N,12203.7551,W,2,4,3.18,1.4,M,-26.6,M,0000,0000*6B
$GPGSA,A,3,01,31,22,32,,,,,,,,,3.32,3.18,0.95*04
$GPRMC,170457.000,A,3700.0640,N,12203.7551,W,0.00,5.12,230413,,,D*7A
$GPVTG,5.12,T,,M,0.00,N,0.00,K,D*3E
$GPGGA,170458.000,3700.0640,N,12203.7551,W,2,4,3.18,1.4,M,-26.6,M,0000,0000*64
$GPGSA,A,3,01,31,22,32,,,,,,,,,3.32,3.18,0.95*04
$GPRMC,170458.000,A,3700.0640,N,12203.7551,W,0.00,5.12,230413,,,D*75
$GPVTG,5.12,T,,M,0.00,N,0.00,K,D*3E
$GPGGA,170459.000,3700.0640,N,12203.7551,W,2,4,3.18,1.4,M,-26.6,M,0000,0000*65
$GPGSA,A,3,01,31,22,32,,,,,,,,,3.32,3.18,0.95*04
$GPGSV,2,1,07,31,66,097,39,32,59,324,32,01,55,274,29,48,45,197,38*70
$GPGSV,2,2,07,11,42,236,,22,16,112,29,25,09,054,*4E
$GPRMC,170459.000,A,3700.0640,N,12203.7551,W,0.00,5.12,230413,,,D*74
$GPVTG,5.12,T,,M,0.00,N,0.00,K,D*3E
$GPGGA,170500.000,3700.0640,N,12203.7551,W,2,4,3.18,1.4,M,-26.6,M,0000,0000*68
$GPGSA,A,3,01,31,22,32,,,,,,,,,3.32,3.18,0.95*04
$GPRMC,170500.000,A,3700.0640,N,12203.7551,W,0.00,5.12,230413,,,D*79
$GPVTG,5.12,T,,M,0.00,N,0.00,K,D*3E
$GPGGA,170501.000,3700.0640,N,12203.7551,W,2,4,3.18,1.4,M,-26.6,M,0000,0000*69
$GPGSA,A,3,01,31,22,32,,,,,,,,,3.31,3.18,0.95*07
$GPRMC,170501.000,A,3700.0640,N,12203.7551,W,0.00,5.12,230413,,,D*78
$GPVTG,5.12,T,,M,0.00,N,0.00,K,D*3E
$GPGGA,170502.000,3700.0640,N,12203.7551,W,2,4,3.17,1.4,M,-26.6,M,0000,0000*65
$GPGSA,A,3,01,31,22,32,,,,,,,,,3.31,3.17,0.95*08
$GPRMC,170502.000,A,3700.0640,N,12203.7551,W,0.00,5.12,230413,,,D*7B
$GPVTG,5.12,T,,M,0.00,N,0.00,K,D*3E
$GPGGA,170503.000,3700.0640,N,12203.7551,W,2,4,3.17,1.4,M,-26.6,M,0000,0000*64
$GPGSA,A,3,01,31,22,32,,,,,,,,,3.31,3.17,0.95*08
$GPRMC,170503.000,A,3700.0640,N,12203.7551,W,0.00,5.12,230413,,,D*7A
$GPVTG,5.12,T,,M,0.00,N,0.00,K,D*3E
$GPGGA,170504.000,3700.0640,N,12203.7551,W,2,5,1.78,1.4,M,-26.6,M,0000,0000*69
$GPGSA,A,3,01,31,11,22,32,,,,,,,,2.02,1.78,0.95*02
$GPGSV,2,1,07,31,66,097,39,32,59,324,33,01,55,274,29,48,45,197,38*71
$GPGSV,2,2,07,11,42,236,19,22,16,112,27,25,09,054,*48
$GPRMC,170504.000,A,3700.0640,N,12203.7551,W,0.00,5.12,230413,,,D*7D
$GPVTG,5.12,T,,M,0.00,N,0.00,K,D*3E
$GPGGA,170505.000,3700.0640,N,12203.7551,W,2,5,1.78,1.4,M,-26.6,M,0000,0000*68
$GPGSA,A,3,01,31,11,22,32,,,,,,,,2.02,1.78,0.95*02
$GPRMC,170505.000,A,3700.0640,N,12203.7551,W,0.00,5.12,230413,,,D*7C
$GPVTG,5.12,T,,M,0.00,N,0.00,K,D*3E
$GPGGA,170506.000,3700.0640,N,12203.7551,W,2,4,3.17,1.4,M,-26.6,M,0000,0000*61
$GPGSA,A,3,01,31,22,32,,,,,,,,,3.31,3.17,0.95*08
$GPRMC,170506.000,A,3700.0640,N,12203.7551,W,0.00,5.12,230413,,,D*7F
$GPVTG,5.12,T,,M,0.00,N,0.00,K,D*3E
$GPGGA,170507.000,3700.0640,N,12203.7551,W,2,5,1.78,1.4,M,-26.6,M,0000,0000*6A
$GPGSA,A,3,01,31,11,22,32,,,,,,,,2.02,1.78,0.95*02
$GPRMC,170507.000,A,3700.0640,N,12203.7551,W,0.00,5.12,230413,,,D*7E
$GPVTG,5.12,T,,M,0.00,N,0.00,K,D*3E
$GPGGA,170508.000,3700.0640,N,12203.7551,W,2,5,1.78,1.4,M,-26.6,M,0000,0000*65
$GPGSA,A,3,01,31,11,22,32,,,,,,,,2.02,1.78,0.95*02
$GPRMC,170508.000,A,3700.0640,N,12203.7551,W,0.00,5.12,230413,,,D*71
$GPVTG,5.12,T,,M,0.00,N,0.00,K,D*3E
$GPGGA,170509.000,3700.0640,N,12203.7551,W,2,5,1.78,1.4,M,-26.6,M,0000,0000*64
$GPGSA,A,3,01,31,11,22,32,,,,,,,,2.02,1.78,0.95*02
$GPGSV,2,1,07,31,66,097,38,32,59,324,33,01,55,274,29,48,45,197,37*7F
$GPGSV,2,2,07,11,42,236,19,22,16,112,25,25,09,054,*4A
$GPRMC,170509.000,A,3700.0640,N,12203.7551,W,0.00,5.12,230413,,,D*70
$GPVTG,5.12,T,,M,0.00,N,0.00,K,D*3E
$GPGGA,170510.000,3700.0640,N,12203.7551,W,2,5,1.78,1.4,M,-26.6,M,0000,0000*6C
$GPGSA,A,3,01,31,11,22,32,,,,,,,,2.02,1.78,0.95*02
$GPRMC,170510.000,A,3700.0640,N,12203.7551,W,0.00,5.12,230413,,,D*78
$GPVTG,5.12,T,,M,0.00,N,0.00,K,D*3E
$GPGGA,170511.000,3700.0640,N,12203.7551,W,2,5,1.78,1.4,M,-26.6,M,0000,0000*6D
$GPGSA,A,3,01,31,11,22,32,,,,,,,,2.02,1.78,0.95*02
$GPRMC,170511.000,A,3700.0640,N,12203.7551,W,0.00,5.12,230413,,,D*79
$GPVTG,5.12,T,,M,0.00,N,0.00,K,D*3E
$GPGGA,170512.000,3700.0640,N,12203.7551,W,2,5,1.78,1.4,M,-26.6,M,0000,0000*6E
$GPGSA,A,3,01,31,11,22,32,,,,,,,,2.02,1.78,0.95*02
$GPRMC,170512.000,A,3700.0640,N,12203.7551,W,0.00,5.12,230413,,,D*7A
$GPVTG,5.12,T,,M,0.00,N,0.00,K,D*3E
$GPGGA,170513.000,3700.0640,N,12203.7551,W,2,5,1.78,1.4,M,-26.6,M,0000,0000*6F
$GPGSA,A,3,01,31,11,22,32,,,,,,,,2.02,1.78,0.95*02
$GPRMC,170513.000,A,3700.0640,N,12203.7551,W,0.00,5.12,230413,,,D*7B
$GPVTG,5.12,T,,M,0.00,N,0.00,K,D*3E
$GPGGA,170514.000,3700.0640,N,12203.7551,W,2,5,1.78,1.4,M,-26.6,M,0000,0000*68
$GPGSA,A,3,01,31,11,22,32,,,,,,,,2.02,1.78,0.95*02
$GPGSV,2,1,07,31,66,097,37,32,59,324,33,01,55,274,30,48,45,197,36*79
$GPGSV,2,2,07,11,42,236,23,22,16,112,22,25,09,054,*44
$GPRMC,170514.000,A,3700.0640,N,12203.7551,W,0.00,5.12,230413,,,D*7C
$GPVTG,5.12,T,,M,0.00,N,0.00,K,D*3E
$GPGGA,170515.000,3700.0640,N,12203.7551,W,2,5,1.78,1.4,M,-26.6,M,0000,0000*69
$GPGSA,A,3,01,31,11,22,32,,,,,,,,2.02,1.78,0.95*02
$GPRMC,170515.000,A,3700.0640,N,12203.7551,W,0.00,5.12,230413,,,D*7D
$GPVTG,5.12,T,,M,0.00,N,0.00,K,D*3E
$GPGGA,170516.000,3700.0640,N,12203.7551,W,2,5,1.78,1.4,M,-26.6,M,0000,0000*6A
$GPGSA,A,3,01,31,11,22,32,,,,,,,,2.02,1.78,0.95*02
$GPRMC,170516.000,A,3700.0640,N,12203.7551,W,0.00,5.12,230413,,,D*7E
$GPVTG,5.12,T,,M,0.00,N,0.00,K,D*3E
$GPGGA,170517.000,3700.0640,N,12203.7551,W,2,5,1.78,1.4,M,-26.6,M,0000,0000*6B
$GPGSA,A,3,01,31,11,22,32,,,,,,,,2.02,1.78,0.95*02
$GPRMC,170517.000,A,3700.0640,N,12203.7551,W,0.00,5.12,230413,,,D*7F
$GPVTG,5.12,T,,M,0.00,N,0.00,K,D*3E
$GPGGA,170518.000,3700.0640,N,12203.7551,W,2,5,1.78,1.4,M,-26.6,M,0000,0000*64
$GPGSA,A,3,01,31,11,22,32,,,,,,,,2.02,1.78,0.95*02
$GPRMC,170518.000,A,3700.0640,N,12203.7551,W,0.00,5.12,230413,,,D*70
$GPVTG,5.12,T,,M,0.00,N,0.00,K,D*3E
$GPGGA,170519.000,3700.0640,N,12203.7551,W,2,5,1.78,1.4,M,-26.6,M,0000,0000*65
$GPGSA,A,3,01,31,11,22,32,,,,,,,,2.02,1.78,0.95*02
$GPGSV,2,1,07,31,66,097,38,32,59,324,33,01,55,274,31,48,45,197,37*76
$GPGSV,2,2,07,11,42,236,25,22,16,112,21,25,09,054,*41
$GPRMC,170519.000,A,3700.0640,N,12203.7551,W,0.00,5.12,230413,,,D*71
$GPVTG,5.12,T,,M,0.00,N,0.00,K,D*3E
$GPGGA,170520.000,3700.0640,N,12203.7551,W,2,5,1.78,1.4,M,-26.6,M,0000,0000*6F
$GPGSA,A,3,01,31,11,22,32,,,,,,,,2.02,1.78,0.95*02
$GPRMC,170520.000,A,3700.0640,N,12203.7551,W,0.00,5.12,230413,,,D*7B
$GPVTG,5.12,T,,M,0.00,N,0.00,K,D*3E
$GPGGA,170521.000,3700.0640,N,12203.7551,W,2,5,1.78,1.4,M,-26.6,M,0000,0000*6E
$GPGSA,A,3,01,31,11,22,32,,,,,,,,2.02,1.78,0.95*02
$GPRMC,170521.000,A,3700.0640,N,12203.7551,W,0.00,5.12,230413,,,D*7A
$GPVTG,5.12,T,,M,0.00,N,0.00,K,D*3E
$GPGGA,170522.000,3700.0640,N,12203.7551,W,2,5,1.78,1.4,M,-26.6,M,0000,0000*6D
$GPGSA,A,3,01,31,11,22,32,,,,,,,,2.02,1.78,0.95*02
$GPRMC,170522.000,A,3700.0640,N,12203.7551,W,0.00,5.12,230413,,,D*79
$GPVTG,5.12,T,,M,0.00,N,0.00,K,D*3E
$GPGGA,170523.000,3700.0640,N,12203.7551,W,2,5,1.78,1.4,M,-26.6,M,0000,0000*6C
$GPGSA,A,3,01,31,11,22,32,,,,,,,,2.02,1.78,0.95*02
$GPRMC,170523.000,A,3700.0640,N,12203.7551,W,0.00,5.12,230413,,,D*78
$GPVTG,5.12,T,,M,0.00,N,0.00,K,D*3E
$GPGGA,170524.000,3700.0640,N,12203.7551,W,2,5,1.78,1.4,M,-26.6,M,0000,0000*6B
$GPGSA,A,3,01,31,11,22,32,,,,,,,,2.02,1.78,0.95*02
$GPGSV,2,1,07,31,66,097,38,32,59,324,34,01,55,274,31,48,45,197,37*71
$GPGSV,2,2,07,11,42,236,27,22,16,112,21,25,09,054,*43
$GPRMC,170524.000,A,3700.0640,N,12203.7551,W,0.00,5.12,230413,,,D*7F
$GPVTG,5.12,T,,M,0.00,N,0.00,K,D*3E
$GPGGA,170525.000,3700.0640,N,12203.7551,W,2,5,1.78,1.4,M,-26.6,M,0000,0000*6A
$GPGSA,A,3,01,31,11,22,32,,,,,,,,2.02,1.78,0.95*02
$GPRMC,170525.000,A,3700.0640,N,12203.7551,W,0.00,5.12,230413,,,D*7E
$GPVTG,5.12,T,,M,0.00,N,0.00,K,D*3E
$GPGGA,170526.000,3700.0640,N,12203.7551,W,2,5,1.78,1.4,M,-26.6,M,0000,0000*69
$GPGSA,A,3,01,31,11,22,32,,,,,,,,2.02,1.78,0.95*02
$GPRMC,170526.000,A,3700.0640,N,12203.7551,W,0.00,5.12,230413,,,D*7D
$GPVTG,5.12,T,,M,0.00,N,0.00,K,D*3E
$GPGGA,170527.000,3700.0640,N,12203.7551,W,2,5,1.78,1.4,M,-26.6,M,0000,0000*68
$GPGSA,A,3,01,31,11,22,32,,,,,,,,2.02,1.78,0.95*02
$GPRMC,170527.000,A,3700.0640,N,12203.7551,W,0.00,5.12,230413,,,D*7C
$GPVTG,5.12,T,,M,0.00,N,0.00,K,D*3E
$GPGGA,170528.000,3700.0640,N,12203.7551,W,2,5,1.78,1.4,M,-26.6,M,0000,0000*67
$GPGSA,A,3,01,31,11,22,32,,,,,,,,2.02,1.78,0.95*02
$GPRMC,170528.000,A,3700.0640,N,12203.7551,W,0.00,5.12,230413,,,D*73
$GPVTG,5.12,T,,M,0.00,N,0.00,K,D*3E
$GPGGA,170529.000,3700.0640,N,12203.7551,W,2,5,1.78,1.4,M,-26.6,M,0000,0000*66
$GPGSA,A,3,01,31,11,22,32,,,,,,,,2.02,1.78,0.95*02
$GPGSV,2,1,07,31,66,096,37,32,59,324,35,01,55,273,31,48,45,197,37*79
$GPGSV,2,2,07,11,42,236,29,22,16,112,24,25,09,054,*48
$GPRMC,170529.000,A,3700.0640,N,12203.7551,W,0.00,5.12,230413,,,D*72
$GPVTG,5.12,T,,M,0.00,N,0.00,K,D*3E
$GPGGA,170530.000,3700.0640,N,12203.7551,W,2,5,2.23,1.4,M,-26.6,M,0000,0000*63
$GPGSA,A,3,01,31,11,22,32,,,,,,,,3.81,2.23,3.08*02
$GPRMC,170530.000,A,3700.0640,N,12203.7551,W,0.00,5.12,230413,,,D*7A
$GPVTG,5.12,T,,M,0.00,N,0.00,K,D*3E
$GPGGA,170531.000,3700.0640,N,12203.7551,W,2,5,1.78,1.4,M,-26.6,M,0000,0000*6F
$GPGSA,A,3,01,31,11,22,32,,,,,,,,2.02,1.78,0.95*02
$GPRMC,170531.000,A,3700.0640,N,12203.7551,W,0.00,5.12,230413,,,D*7B
$GPVTG,5.12,T,,M,0.00,N,0.00,K,D*3E
$GPGGA,170532.000,3700.0640,N,12203.7551,W,2,5,1.78,1.4,M,-26.6,M,0000,0000*6C
$GPGSA,A,3,01,31,11,22,32,,,,,,,,2.02,1.78,0.95*02
$GPRMC,170532.000,A,3700.0640,N,12203.7551,W,0.00,5.12,230413,,,D*78
$GPVTG,5.12,T,,M,0.00,N,0.00,K,D*3E
$GPGGA,170533.000,3700.0640,N,12203.7551,W,2,5,1.78,1.4,M,-26.6,M,0000,0000*6D
$GPGSA,A,3,01,31,11,22,32,,,,,,,,2.02,1.78,0.95*02
$GPRMC,170533.000,A,3700.0640,N,12203.7551,W,0.00,5.12,230413,,,D*79
$GPVTG,5.12,T,,M,0.00,N,0.00,K,D*3E
$GPGGA,170534.000,3700.0640,N,12203.7551,W,2,5,1.78,1.4,M,-26.6,M,0000,0000*6A
$GPGSA,A,3,01,31,11,22,32,,,,,,,,2.02,1.78,0.95*02
$GPGSV,2,1,07,31,66,096,37,32,59,324,35,01,55,273,32,48,45,197,37*7A
$GPGSV,2,2,07,11,42,236,29,22,16,112,26,25,09,054,*4A
$GPRMC,170534.000,A,3700.0640,N,12203.7551,W,0.00,5.12,230413,,,D*7E
$GPVTG,5.12,T,,M,0.00,N,0.00,K,D*3E
$GPGGA,170535.000,3700.0640,N,12203.7551,W,2,5,1.78,1.4,M,-26.6,M,0000,0000*6B
$GPGSA,A,3,01,31,11,22,32,,,,,,,,2.02,1.78,0.95*02
$GPRMC,170535.000,A,3700.0640,N,12203.7551,W,0.00,5.12,230413,,,D*7F
$GPVTG,5.12,T,,M,0.00,N,0.00,K,D*3E
$GPGGA,170536.000,3700.0640,N,12203.7551,W,2,5,1.78,1.4,M,-26.6,M,0000,0000*68
$GPGSA,A,3,01,31,11,22,32,,,,,,,,2.02,1.78,0.95*02
$GPRMC,170536.000,A,3700.0640,N,12203.7551,W,0.00,5.12,230413,,,D*7C
$GPVTG,5.12,T,,M,0.00,N,0.00,K,D*3E
$GPGGA,170537.000,3700.0640,N,12203.7551,W,2,5,1.78,1.4,M,-26.6,M,0000,0000*69
$GPGSA,A,3,01,31,11,22,32,,,,,,,,2.02,1.78,0.95*02
$GPRMC,170537.000,A,3700.0640,N,12203.7551,W,0.00,5.12,230413,,,D*7D
$GPVTG,5.12,T,,M,0.00,N,0.00,K,D*3E
$GPGGA,170538.000,3700.0640,N,12203.7551,W,2,5,1.78,1.4,M,-26.6,M,0000,0000*66
$GPGSA,A,3,01,31,11,22,32,,,,,,,,2.02,1.78,0.95*02
$GPRMC,170538.000,A,3700.0640,N,12203.7551,W,0.00,5.12,230413,,,D*72
$GPVTG,5.12,T,,M,0.00,N,0.00,K,D*3E
$GPGGA,170539.000,3700.0640,N,12203.7551,W,2,5,1.78,1.4,M,-26.6,M,0000,0000*67
$GPGSA,A,3,01,31,11,22,32,,,,,,,,2.02,1.78,0.95*02
$GPGSV,2,1,07,31,66,096,37,32,59,324,36,01,55,273,34,48,45,197,38*70
$GPGSV,2,2,07,11,42,236,30,22,16,112,27,25,09,054,*43
$GPRMC,170539.000,A,3700.0640,N,12203.7551,W,0.00,5.12,230413,,,D*73
$GPVTG,5.12,T,,M,0.00,N,0.00,K,D*3E
$GPGGA,170540.000,3700.0640,N,12203.7551,W,2,5,1.78,1.4,M,-26.6,M,0000,0000*69
$GPGSA,A,3,01,31,11,22,32,,,,,,,,2.02,1.78,0.95*02
$GPRMC,170540.000,A,3700.0640,N,12203.7551,W,0.00,5.12,230413,,,D*7D
$GPVTG,5.12,T,,M,0.00,N,0.00,K,D*3E
$GPGGA,170541.000,3700.0640,N,12203.7551,W,2,5,1.78,1.4,M,-26.6,M,0000,0000*68
$GPGSA,A,3,01,31,11,22,32,,,,,,,,2.02,1.78,0.95*02
$GPRMC,170541.000,A,3700.0640,N,12203.7551,W,0.00,5.12,230413,,,D*7C
$GPVTG,5.12,T,,M,0.00,N,0.00,K,D*3E
$GPGGA,170542.000,3700.0640,N,12203.7551,W,2,5,1.78,1.4,M,-26.6,M,0000,0000*6B
$GPGSA,A,3,01,31,11,22,32,,,,,,,,2.02,1.78,0.95*02
$GPRMC,170542.000,A,3700.0640,N,12203.7551,W,0.00,5.12,230413,,,D*7F
$GPVTG,5.12,T,,M,0.00,N,0.00,K,D*3E
$GPGGA,170543.000,3700.0640,N,12203.7551,W,2,5,1.78,1.4,M,-26.6,M,0000,0000*6A
$GPGSA,A,3,01,31,11,22,32,,,,,,,,2.02,1.78,0.95*02
$GPRMC,170543.000,A,3700.0640,N,12203.7551,W,0.00,5.12,230413,,,D*7E
$GPVTG,5.12,T,,M,0.00,N,0.00,K,D*3E
$GPGGA,170544.000,3700.0640,N,12203.7551,W,2,5,1.78,1.4,M,-26.6,M,0000,0000*6D
$GPGSA,A,3,01,31,11,22,32,,,,,,,,2.02,1.78,0.95*02
$GPGSV,2,1,07,31,66,096,37,32,59,324,37,01,55,273,34,48,45,197,38*71
$GPGSV,2,2,07,11,42,236,31,22,16,112,26,25,09,054,*43
$GPRMC,170544.000,A,3700.0640,N,12203.7551,W,0.00,5.12,230413,,,D*79
$GPVTG,5.12,T,,M,0.00,N,0.00,K,D*3E
$GPGGA,170545.000,3700.0640,N,12203.7551,W,2,5,1.78,1.4,M,-26.6,M,0000,0000*6C
$GPGSA,A,3,01,31,11,22,32,,,,,,,,2.02,1.78,0.95*02
$GPRMC,170545.000,A,3700.0640,N,12203.7551,W,0.00,5.12,230413,,,D*78
$GPVTG,5.12,T,,M,0.00,N,0.00,K,D*3E
$GPGGA,170546.000,3700.0640,N,12203.7551,W,2,5,1.78,1.4,M,-26.6,M,0000,0000*6F
$GPGSA,A,3,01,31,11,22,32,,,,,,,,2.02,1.78,0.95*02
$GPRMC,170546.000,A,3700.0640,N,12203.7551,W,0.00,5.12,230413,,,D*7B
$GPVTG,5.12,T,,M,0.00,N,0.00,K,D*3E
$GPGGA,170547.000,3700.0640,N,12203.7551,W,2,5,1.78,1.4,M,-26.6,M,0000,0000*6E
$GPGSA,A,3,01,31,11,22,32,,,,,,,,2.02,1.78,0.95*02
$GPRMC,170547.000,A,3700.0640,N,12203.7551,W,0.00,5.12,230413,,,D*7A
$GPVTG,5.12,T,,M,0.00,N,0.00,K,D*3E
$GPGGA,170548.000,3700.0640,N,12203.7551,W,2,5,1.78,1.4,M,-26.6,M,0000,0000*61
$GPGSA,A,3,01,31,11,22,32,,,,,,,,2.02,1.78,0.95*02
$GPRMC,170548.000,A,3700.0640,N,12203.7551,W,0.00,5.12,230413,,,D*75
$GPVTG,5.12,T,,M,0.00,N,0.00,K,D*3E
$GPGGA,170549.000,3700.0640,N,12203.7551,W,2,5,1.78,1.4,M,-26.6,M,0000,0000*60
$GPGSA,A,3,01,31,11,22,32,,,,,,,,2.02,1.78,0.95*02
$GPGSV,2,1,07,31,66,096,37,32,59,324,37,01,55,273,35,48,45,197,38*70
$GPGSV,2,2,07,11,42,236,31,22,16,112,28,25,09,054,*4D
$GPRMC,170549.000,A,3700.0640,N,12203.7551,W,0.00,5.12,230413,,,D*74
$GPVTG,5.12,T,,M,0.00,N,0.00,K,D*3E
$GPGGA,170550.000,3700.0640,N,12203.7551,W,2,5,2.24,1.4,M,-26.6,M,0000,0000*62
$GPGSA,A,3,01,31,11,22,32,,,,,,,,3.82,2.24,3.09*07
$GPRMC,170550.000,A,3700.0640,N,12203.7551,W,0.00,5.12,230413,,,D*7C
$GPVTG,5.12,T,,M,0.00,N,0.00,K,D*3E
$GPGGA,170551.000,3700.0640,N,12203.7551,W,2,5,2.24,1.4,M,-26.6,M,0000,0000*63
$GPGSA,A,3,01,31,11,22,32,,,,,,,,3.82,2.24,3.09*07
$GPRMC,170551.000,A,3700.0640,N,12203.7551,W,0.00,5.12,230413,,,D*7D
$GPVTG,5.12,T,,M,0.00,N,0.00,K,D*3E
$GPGGA,170552.000,3700.0640,N,12203.7551,W,2,5,1.78,1.4,M,-26.6,M,0000,0000*6A
$GPGSA,A,3,01,31,11,22,32,,,,,,,,2.02,1.78,0.95*02
$GPRMC,170552.000,A,3700.0640,N,12203.7551,W,0.00,5.12,230413,,,D*7E
$GPVTG,5.12,T,,M,0.00,N,0.00,K,D*3E
$GPGGA,170553.000,3700.0640,N,12203.7551,W,2,5,1.78,1.4,M,-26.6,M,0000,0000*6B
$GPGSA,A,3,01,31,11,22,32,,,,,,,,2.02,1.78,0.95*02
$GPRMC,170553.000,A,3700.0640,N,12203.7551,W,0.00,5.12,230413,,,D*7F
$GPVTG,5.12,T,,M,0.00,N,0.00,K,D*3E
$GPGGA,170554.000,3700.0640,N,12203.7551,W,2,5,1.78,1.4,M,-26.6,M,0000,0000*6C
$GPGSA,A,3,01,31,11,22,32,,,,,,,,2.02,1.78,0.95*02
$GPGSV,2,1,07,31,66,096,37,32,59,324,37,01,55,273,35,48,45,197,38*70
$GPGSV,2,2,07,11,42,236,29,22,16,112,28,25,09,053,*43
$GPRMC,170554.000,A,3700.0640,N,12203.7551,W,0.00,5.12,230413,,,D*78
$GPVTG,5.12,T,,M,0.00,N,0.00,K,D*3E
$GPGGA,170555.000,3700.0640,N,12203.7551,W,2,5,2.24,1.4,M,-26.6,M,0000,0000*67
$GPGSA,A,3,01,31,11,22,32,,,,,,,,3.82,2.24,3.09*07
$GPRMC,170555.000,A,3700.0640,N,12203.7551,W,0.00,5.12,230413,,,D*79
$GPVTG,5.12,T,,M,0.00,N,0.00,K,D*3E
$GPGGA,170556.000,3700.0640,N,12203.7551,W,2,5,1.78,1.4,M,-26.6,M,0000,0000*6E
$GPGSA,A,3,01,31,11,22,32,,,,,,,,2.02,1.78,0.95*02
$GPRMC,170556.000,A,3700.0640,N,12203.7551,W,0.00,5.12,230413,,,D*7A
$GPVTG,5.12,T,,M,0.00,N,0.00,K,D*3E
$GPGGA,170557.000,3700.0640,N,12203.7551,W,2,5,1.78,1.4,M,-26.6,M,0000,0000*6F
$GPGSA,A,3,01,31,11,22,32,,,,,,,,2.02,1.78,0.95*02
$GPRMC,170557.000,A,3700.0640,N,12203.7551,W,0.00,5.12,230413,,,D*7B
$GPVTG,5.12,T,,M,0.00,N,0.00,K,D*3E
$GPGGA,170558.000,3700.0640,N,12203.7551,W,2,5,1.78,1.4,M,-26.6,M,0000,0000*60
$GPGSA,A,3,01,31,11,22,32,,,,,,,,2.02,1.78,0.95*02
$GPRMC,170558.000,A,3700.0640,N,12203.7551,W,0.00,5.12,230413,,,D*74
$GPVTG,5.12,T,,M,0.00,N,0.00,K,D*3E
$GPGGA,170559.000,3700.0640,N,12203.7551,W,2,5,1.78,1.4,M,-26.6,M,0000,0000*61
$GPGSA,A,3,01,31,11,22,32,,,,,,,,2.01,1.78,0.95*01
$GPGSV,2,1,07,31,66,096,36,32,60,325,37,01,55,273,35,48,45,197,38*7A
$GPGSV,2,2,07,11,42,236,28,22,16,112,29,25,09,053,*43
$GPRMC,170559.000,A,3700.0640,N,12203.7551,W,0.00,5.12,230413,,,D*75
$GPVTG,5.12,T,,M,0.00,N,0.00,K,D*3E
$GPGGA,170600.000,3700.0640,N,12203.7551,W,2,5,1.78,1.4,M,-26.6,M,0000,0000*6E
$GPGSA,A,3,01,31,11,22,32,,,,,,,,2.01,1.78,0.95*01
$GPRMC,170600.000,A,3700.0640,N,12203.7551,W,0.00,5.12,230413,,,D*7A
$GPVTG,5.12,T,,M,0.00,N,0.00,K,D*3E
$GPGGA,170601.000,3700.0640,N,12203.7551,W,2,5,1.78,1.4,M,-26.6,M,0000,0000*6F
$GPGSA,A,3,01,31,11,22,32,,,,,,,,2.01,1.78,0.95*01
$GPRMC,170601.000,A,3700.0640,N,12203.7551,W,0.00,5.12,230413,,,D*7B
$GPVTG,5.12,T,,M,0.00,N,0.00,K,D*3E
$GPGGA,170602.000,3700.0640,N,12203.7551,W,2,5,2.25,1.4,M,-26.6,M,0000,0000*67
$GPGSA,A,3,01,31,11,22,32,,,,,,,,3.83,2.25,3.10*0F
$GPRMC,170602.000,A,3700.0640,N,12203.7551,W,0.00,5.12,230413,,,D*78
$GPVTG,5.12,T,,M,0.00,N,0.00,K,D*3E
$GPGGA,170603.000,3700.0640,N,12203.7551,W,2,5,1.78,1.4,M,-26.6,M,0000,0000*6D
$GPGSA,A,3,01,31,11,22,32,,,,,,,,2.01,1.78,0.95*01
$GPRMC,170603.000,A,3700.0640,N,12203.7551,W,0.00,5.12,230413,,,D*79
$GPVTG,5.12,T,,M,0.00,N,0.00,K,D*3E
$GPGGA,170604.000,3700.0640,N,12203.7551,W,2,5,1.77,1.4,M,-26.6,M,0000,0000*65
$GPGSA,A,3,01,31,11,22,32,,,,,,,,2.01,1.77,0.95*0E
$GPGSV,2,1,07,31,66,096,35,32,60,325,37,01,55,273,34,48,45,197,38*78
$GPGSV,2,2,07,11,42,236,31,22,16,112,26,25,09,053,*44
$GPRMC,170604.000,A,3700.0640,N,12203.7551,W,0.00,5.12,230413,,,D*7E
$GPVTG,5.12,T,,M,0.00,N,0.00,K,D*3E
$GPGGA,170605.000,3700.0640,N,12203.7551,W,2,5,1.78,1.4,M,-26.6,M,0000,0000*6B
$GPGSA,A,3,01,31,11,22,32,,,,,,,,2.01,1.78,0.95*01
$GPRMC,170605.000,A,3700.0640,N,12203.7551,W,0.00,5.12,230413,,,D*7F
$GPVTG,5.12,T,,M,0.00,N,0.00,K,D*3E
$GPGGA,170606.000,3700.0640,N,12203.7551,W,2,5,1.77,1.4,M,-26.6,M,0000,0000*67
$GPGSA,A,3,01,31,11,22,32,,,,,,,,2.01,1.77,0.95*0E
$GPRMC,170606.000,A,3700.0640,N,12203.7551,W,0.00,5.12,230413,,,D*7C
$GPVTG,5.12,T,,M,0.00,N,0.00,K,D*3E
$GPGGA,170607.000,3700.0640,N,12203.7551,W,2,5,1.78,1.4,M,-26.6,M,0000,0000*69
$GPGSA,A,3,01,31,11,22,32,,,,,,,,2.01,1.78,0.95*01
$GPRMC,170607.000,A,3700.0640,N,12203.7551,W,0.00,5.12,230413,,,D*7D
$GPVTG,5.12,T,,M,0.00,N,0.00,K,D*3E
$GPGGA,170608.000,3700.0640,N,12203.7551,W,2,5,1.78,1.4,M,-26.6,M,0000,0000*66
$GPGSA,A,3,01,31,11,22,32,,,,,,,,2.01,1.78,0.95*01
$GPRMC,170608.000,A,3700.0640,N,12203.7551,W,0.00,5.12,230413,,,D*72
$GPVTG,5.12,T,,M,0.00,N,0.00,K,D*3E
$GPGGA,170609.000,3700.0640,N,12203.7551,W,2,5,1.77,1.4,M,-26.6,M,0000,0000*68
$GPGSA,A,3,01,31,11,22,32,,,,,,,,2.01,1.77,0.95*0E
$GPGSV,2,1,07,31,66,096,33,32,60,325,37,01,55,273,35,48,45,197,38*7F
$GPGSV,2,2,07,11,42,236,30,22,16,112,25,25,09,053,*46
$GPRMC,170609.000,A,3700.0640,N,12203.7551,W,0.00,5.12,230413,,,D*73
$GPVTG,5.12,T,,M,0.00,N,0.00,K,D*3E
$GPGGA,170610.000,3700.0640,N,12203.7551,W,2,5,1.77,1.4,M,-26.6,M,0000,0000*60
$GPGSA,A,3,01,31,11,22,32,,,,,,,,2.01,1.77,0.95*0E
$GPRMC,170610.000,A,3700.0640,N,12203.7551,W,0.00,5.12,230413,,,D*7B
$GPVTG,5.12,T,,M,0.00,N,0.00,K,D*3E
$GPGGA,170611.000,3700.0640,N,12203.7551,W,2,5,1.77,1.4,M,-26.6,M,0000,0000*61
$GPGSA,A,3,01,31,11,22,32,,,,,,,,2.01,1.77,0.95*0E
$GPRMC,170611.000,A,3700.0640,N,12203.7551,W,0.00,5.12,230413,,,D*7A
$GPVTG,5.12,T,,M,0.00,N,0.00,K,D*3E
$GPGGA,170612.000,3700.0640,N,12203.7551,W,2,5,1.77,1.4,M,-26.6,M,0000,0000*62
$GPGSA,A,3,01,31,11,22,32,,,,,,,,2.01,1.77,0.95*0E
$GPRMC,170612.000,A,3700.0640,N,12203.7551,W,0.00,5.12,230413,,,D*79
$GPVTG,5.12,T,,M,0.00,N,0.00,K,D*3E
$GPGGA,170613.000,3700.0640,N,12203.7551,W,2,5,1.77,1.4,M,-26.6,M,0000,0000*63
$GPGSA,A,3,01,31,11,22,32,,,,,,,,2.01,1.77,0.95*0E
$GPRMC,170613.000,A,3700.0640,N,12203.7551,W,0.00,5.12,230413,,,D*78
$GPVTG,5.12,T,,M,0.00,N,0.00,K,D*3E
$GPGGA,170614.000,3700.0640,N,12203.7551,W,2,5,1.77,1.4,M,-26.6,M,0000,0000*64
$GPGSA,A,3,01,31,11,22,32,,,,,,,,2.01,1.77,0.95*0E
$GPGSV,2,1,07,31,66,096,34,32,60,325,37,01,55,273,34,48,45,197,39*78
$GPGSV,2,2,07,11,41,235,30,22,16,112,24,25,09,053,*47
$GPRMC,170614.000,A,3700.0640,N,12203.7551,W,0.00,5.12,230413,,,D*7F
$GPVTG,5.12,T,,M,0.00,N,0.00,K,D*3E
$GPGGA,170615.000,3700.0640,N,12203.7551,W,2,5,1.77,1.4,M,-26.6,M,0000,0000*65
$GPGSA,A,3,01,31,11,22,32,,,,,,,,2.01,1.77,0.95*0E
$GPRMC,170615.000,A,3700.0640,N,12203.7551,W,0.00,5.12,230413,,,D*7E
$GPVTG,5.12,T,,M,0.00,N,0.00,K,D*3E
$GPGGA,170616.000,3700.0640,N,12203.7551,W,2,5,1.77,1.4,M,-26.6,M,0000,0000*66
$GPGSA,A,3,01,31,11,22,32,,,,,,,,2.01,1.77,0.95*0E
$GPRMC,170616.000,A,3700.0640,N,12203.7551,W,0.00,5.12,230413,,,D*7D
$GPVTG,5.12,T,,M,0.00,N,0.00,K,D*3E
$GPGGA,170617.000,3700.0640,N,12203.7551,W,2,5,1.77,1.4,M,-26.6,M,0000,0000*67
$GPGSA,A,3,01,31,11,22,32,,,,,,,,2.01,1.77,0.95*0E
$GPRMC,170617.000,A,3700.0640,N,12203.7551,W,0.00,5.12,230413,,,D*7C
$GPVTG,5.12,T,,M,0.00,N,0.00,K,D*3E
$GPGGA,170618.000,3700.0640,N,12203.7551,W,2,5,1.77,1.4,M,-26.6,M,0000,0000*68
$GPGSA,A,3,01,31,11,22,32,,,,,,,,2.01,1.77,0.95*0E
$GPRMC,170618.000,A,3700.0640,N,12203.7551,W,0.00,5.12,230413,,,D*73
$GPVTG,5.12,T,,M,0.00,N,0.00,K,D*3E
$GPGGA,170619.000,3700.0640,N,12203.7551,W,2,5,1.77,1.4,M,-26.6,M,0000,0000*69
$GPGSA,A,3,01,31,11,22,32,,,,,,,,2.01,1.77,0.95*0E
$GPGSV,2,1,07,31,66,096,34,32,60,325,38,01,55,273,35,48,45,197,39*76
$GPGSV,2,2,07,11,41,235,29,22,16,112,21,25,09,053,*4A
$GPRMC,170619.000,A,3700.0640,N,12203.7551,W,0.00,5.12,230413,,,D*72
$GPVTG,5.12,T,,M,0.00,N,0.00,K,D*3E
$GPGGA,170620.000,3700.0640,N,12203.7551,W,2,5,1.77,1.4,M,-26.6,M,0000,0000*63
$GPGSA,A,3,01,31,11,22,32,,,,,,,,2.01,1.77,0.95*0E
$GPRMC,170620.000,A,3700.0640,N,12203.7551,W,0.00,5.12,230413,,,D*78
$GPVTG,5.12,T,,M,0.00,N,0.00,K,D*3E
$GPGGA,170621.000,3700.0640,N,12203.7551,W,2,5,1.77,1.4,M,-26.6,M,0000,0000*62
$GPGSA,A,3,01,31,11,22,32,,,,,,,,2.01,1.77,0.95*0E
$GPRMC,170621.000,A,3700.0640,N,12203.7551,W,0.00,5.12,230413,,,D*79
$GPVTG,5.12,T,,M,0.00,N,0.00,K,D*3E
$GPGGA,170622.000,3700.0640,N,12203.7551,W,2,5,1.77,1.4,M,-26.6,M,0000,0000*61
$GPGSA,A,3,01,31,11,22,32,,,,,,,,2.01,1.77,0.95*0E
$GPRMC,170622.000,A,3700.0640,N,12203.7551,W,0.00,5.12,230413,,,D*7A
$GPVTG,5.12,T,,M,0.00,N,0.00,K,D*3E
$GPGGA,170623.000,3700.0640,N,12203.7551,W,2,5,1.77,1.4,M,-26.6,M,0000,0000*60
$GPGSA,A,3,01,31,11,22,32,,,,,,,,2.01,1.77,0.95*0E
$GPRMC,170623.000,A,3700.0640,N,12203.7551,W,0.00,5.12,230413,,,D*7B
$GPVTG,5.12,T,,M,0.00,N,0.00,K,D*3E
$GPGGA,170624.000,3700.0640,N,12203.7551,W,2,5,1.77,1.4,M,-26.6,M,0000,0000*67
$GPGSA,A,3,01,31,11,22,32,,,,,,,,2.01,1.77,0.95*0E
$GPGSV,2,1,07,31,66,096,34,32,60,325,38,01,55,273,35,48,45,197,37*78
$GPGSV,2,2,07,11,41,235,28,22,16,113,19,25,09,053,*41
$GPRMC,170624.000,A,3700.0640,N,12203.7551,W,0.00,5.12,230413,,,D*7C
$GPVTG,5.12,T,,M,0.00,N,0.00,K,D*3E
$GPGGA,170625.000,3700.0640,N,12203.7551,W,2,5,1.77,1.4,M,-26.6,M,0000,0000*66
$GPGSA,A,3,01,31,11,22,32,,,,,,,,2.01,1.77,0.95*0E
$GPRMC,170625.000,A,3700.0640,N,12203.7551,W,0.00,5.12,230413,,,D*7D
$GPVTG,5.12,T,,M,0.00,N,0.00,K,D*3E
$GPGGA,170626.000,3700.0640,N,12203.7551,W,2,5,1.77,1.4,M,-26.6,M,0000,0000*65
$GPGSA,A,3,01,31,11,22,32,,,,,,,,2.01,1.77,0.95*0E
$GPRMC,170626.000,A,3700.0640,N,12203.7551,W,0.00,5.12,230413,,,D*7E
$GPVTG,5.12,T,,M,0.00,N,0.00,K,D*3E
$GPGGA,170627.000,3700.0640,N,12203.7551,W,2,5,1.77,1.4,M,-26.6,M,0000,0000*64
$GPGSA,A,3,01,31,11,22,32,,,,,,,,2.01,1.77,0.95*0E
$GPRMC,170627.000,A,3700.0640,N,12203.7551,W,0.00,5.12,230413,,,D*7F
$GPVTG,5.12,T,,M,0.00,N,0.00,K,D*3E
$GPGGA,170628.000,3700.0640,N,12203.7551,W,2,5,1.77,1.4,M,-26.6,M,0000,0000*6B
$GPGSA,A,3,01,31,11,22,32,,,,,,,,2.01,1.77,0.95*0E
$GPRMC,170628.000,A,3700.0640,N,12203.7551,W,0.00,5.12,230413,,,D*70
$GPVTG,5.12,T,,M,0.00,N,0.00,K,D*3E
$GPGGA,170629.000,3700.0640,N,12203.7551,W,2,5,1.77,1.4,M,-26.6,M,0000,0000*6A
$GPGSA,A,3,01,31,11,22,32,,,,,,,,2.01,1.77,0.95*0E
$GPGSV,2,1,07,31,66,096,36,32,60,325,38,01,55,273,35,48,45,197,37*7A
$GPGSV,2,2,07,11,41,235,29,22,16,113,22,25,09,053,*48
$GPRMC,170629.000,A,3700.0640,N,12203.7551,W,0.00,5.12,230413,,,D*71
$GPVTG,5.12,T,,M,0.00,N,0.00,K,D*3E
$GPGGA,170630.000,3700.0640,N,12203.7551,W,2,5,1.77,1.4,M,-26.6,M,0000,0000*62
$GPGSA,A,3,01,31,11,22,32,,,,,,,,2.01,1.77,0.95*0E
$GPRMC,170630.000,A,3700.0640,N,12203.7551,W,0.00,5.12,230413,,,D*79
$GPVTG,5.12,T,,M,0.00,N,0.00,K,D*3E
$GPGGA,170631.000,3700.0640,N,12203.7551,W,2,5,1.77,1.4,M,-26.6,M,0000,0000*63
$GPGSA,A,3,01,31,11,22,32,,,,,,,,2.01,1.77,0.95*0E
$GPRMC,170631.000,A,3700.0640,N,12203.7551,W,0.00,5.12,230413,,,D*78
$GPVTG,5.12,T,,M,0.00,N,0.00,K,D*3E
$GPGGA,170632.000,3700.0640,N,12203.7551,W,2,5,2.26,1.4,M,-26.6,M,0000,0000*67
$GPGSA,A,3,01,31,11,22,32,,,,,,,,3.85,2.26,3.12*08
$GPRMC,170632.000,A,3700.0640,N,12203.7551,W,0.00,5.12,230413,,,D*7B
$GPVTG,5.12,T,,M,0.00,N,0.00,K,D*3E
$GPGGA,170633.000,3700.0640,N,12203.7551,W,2,5,1.77,1.4,M,-26.6,M,0000,0000*61
$GPGSA,A,3,01,31,11,22,32,,,,,,,,2.01,1.77,0.95*0E
$GPRMC,170633.000,A,3700.0640,N,12203.7551,W,0.00,5.12,230413,,,D*7A
$GPVTG,5.12,T,,M,0.00,N,0.00,K,D*3E
$GPGGA,170634.000,3700.0640,N,12203.7551,W,2,5,1.77,1.4,M,-26.6,M,0000,0000*66
$GPGSA,A,3,01,31,11,22,32,,,,,,,,2.01,1.77,0.95*0E
$GPGSV,2,1,07,31,66,095,32,32,60,325,38,01,55,272,35,48,45,197,37*7C
$GPGSV,2,2,07,11,41,235,27,22,16,113,28,25,09,053,*4C
$GPRMC,170634.000,A,3700.0640,N,12203.7551,W,0.00,5.12,230413,,,D*7D
$GPVTG,5.12,T,,M,0.00,N,0.00,K,D*3E
$GPGGA,170635.000,3700.0640,N,12203.7551,W,2,5,1.77,1.4,M,-26.6,M,0000,0000*67
$GPGSA,A,3,01,31,11,22,32,,,,,,,,2.01,1.77,0.95*0E
$GPRMC,170635.000,A,3700.0640,N,12203.7551,W,0.00,5.12,230413,,,D*7C
$GPVTG,5.12,T,,M,0.00,N,0.00,K,D*3E
$GPGGA,170636.000,3700.0640,N,12203.7551,W,2,5,1.77,1.4,M,-26.6,M,0000,0000*64
$GPGSA,A,3,01,31,11,22,32,,,,,,,,2.01,1.77,0.95*0E
$GPRMC,170636.000,A,3700.0640,N,12203.7551,W,0.00,5.12,230413,,,D*7F
$GPVTG,5.12,T,,M,0.00,N,0.00,K,D*3E
$GPGGA,170637.000,3700.0640,N,12203.7551,W,2,5,1.77,1.4,M,-26.6,M,0000,0000*65
$GPGSA,A,3,01,31,11,22,32,,,,,,,,2.01,1.77,0.95*0E
$GPRMC,170637.000,A,3700.0640,N,12203.7551,W,0.00,5.12,230413,,,D*7E
$GPVTG,5.12,T,,M,0.00,N,0.00,K,D*3E
$GPGGA,170638.000,3700.0640,N,12203.7551,W,2,5,1.77,1.4,M,-26.6,M,0000,0000*6A
$GPGSA,A,3,01,31,11,22,32,,,,,,,,2.01,1.77,0.95*0E
$GPRMC,170638.000,A,3700.0640,N,12203.7551,W,0.00,5.12,230413,,,D*71
$GPVTG,5.12,T,,M,0.00,N,0.00,K,D*3E
$GPGGA,170639.000,3700.0640,N,12203.7551,W,2,5,1.77,1.4,M,-26.6,M,0000,0000*6B
$GPGSA,A,3,01,31,11,22,32,,,,,,,,2.01,1.77,0.95*0E
$GPGSV,2,1,07,31,66,095,30,32,60,325,38,01,55,272,35,48,45,197,38*71
$GPGSV,2,2,07,11,41,235,30,22,16,113,29,25,09,053,*4B
$GPRMC,170639.000,A,3700.0640,N,12203.7551,W,0.00,5.12,230413,,,D*70
$GPVTG,5.12,T,,M,0.00,N,0.00,K,D*3E
$GPGGA,170640.000,3700.0640,N,12203.7551,W,2,5,1.77,1.4,M,-26.6,M,0000,0000*65
$GPGSA,A,3,01,31,11,22,32,,,,,,,,2.01,1.77,0.95*0E
$GPRMC,170640.000,A,3700.0640,N,12203.7551,W,0.00,5.12,230413,,,D*7E
$GPVTG,5.12,T,,M,0.00,N,0.00,K,D*3E
$GPGGA,170641.000,3700.0640,N,12203.7551,W,2,5,1.77,1.4,M,-26.6,M,0000,0000*64
$GPGSA,A,3,01,31,11,22,32,,,,,,,,2.01,1.77,0.95*0E
$GPRMC,170641.000,A,3700.0640,N,12203.7551,W,0.00,5.12,230413,,,D*7F
$GPVTG,5.12,T,,M,0.00,N,0.00,K,D*3E
$GPGGA,170642.000,3700.0640,N,12203.7551,W,2,5,2.27,1.4,M,-26.6,M,0000,0000*61
$GPGSA,A,3,01,31,11,22,32,,,,,,,,3.86,2.27,3.12*0A
$GPRMC,170642.000,A,3700.0640,N,12203.7551,W,0.00,5.12,230413,,,D*7C
$GPVTG,5.12,T,,M,0.00,N,0.00,K,D*3E
$GPGGA,170643.000,3700.0640,N,12203.7551,W,2,5,1.77,1.4,M,-26.6,M,0000,0000*66
$GPGSA,A,3,01,31,11,22,32,,,,,,,,2.01,1.77,0.95*0E
$GPRMC,170643.000,A,3700.0640,N,12203.7551,W,0.00,5.12,230413,,,D*7D
$GPVTG,5.12,T,,M,0.00,N,0.00,K,D*3E
$GPGGA,170644.000,3700.0640,N,12203.7551,W,2,5,1.77,1.4,M,-26.6,M,0000,0000*61
$GPGSA,A,3,01,31,11,22,32,,,,,,,,2.01,1.77,0.95*0E
$GPGSV,2,1,07,31,66,095,29,32,60,325,37,01,55,272,33,48,45,197,38*70
$GPGSV,2,2,07,11,41,235,28,22,16,113,30,25,09,053,*4A
$GPRMC,170644.000,A,3700.0640,N,12203.7551,W,0.00,5.12,230413,,,D*7A
$GPVTG,5.12,T,,M,0.00,N,0.00,K,D*3E
$GPGGA,170645.000,3700.0640,N,12203.7551,W,2,5,1.77,1.4,M,-26.6,M,0000,0000*60
$GPGSA,A,3,01,31,11,22,32,,,,,,,,2.01,1.77,0.95*0E
$GPRMC,170645.000,A,3700.0640,N,12203.7551,W,0.00,5.12,230413,,,D*7B
$GPVTG,5.12,T,,M,0.00,N,0.00,K,D*3E
$GPGGA,170646.000,3700.0640,N,12203.7551,W,2,5,2.27,1.4,M,-26.6,M,0000,0000*65
$GPGSA,A,3,01,31,11,22,32,,,,,,,,3.86,2.27,3.12*0A
$GPRMC,170646.000,A,3700.0640,N,12203.7551,W,0.00,5.12,230413,,,D*78
$GPVTG,5.12,T,,M,0.00,N,0.00,K,D*3E
$GPGGA,170647.000,3700.0640,N,12203.7551,W,2,5,2.27,1.4,M,-26.6,M,0000,0000*64
$GPGSA,A,3,01,31,11,22,32,,,,,,,,3.86,2.27,3.12*0A
$GPRMC,170647.000,A,3700.0640,N,12203.7551,W,0.00,5.12,230413,,,D*79
$GPVTG,5.12,T,,M,0.00,N,0.00,K,D*3E
$GPGGA,170648.000,3700.0640,N,12203.7551,W,2,5,1.77,1.4,M,-26.6,M,0000,0000*6D
$GPGSA,A,3,01,31,11,22,32,,,,,,,,2.01,1.77,0.95*0E
$GPRMC,170648.000,A,3700.0640,N,12203.7551,W,0.00,5.12,230413,,,D*76
$GPVTG,5.12,T,,M,0.00,N,0.00,K,D*3E
$GPGGA,170649.000,3700.0640,N,12203.7551,W,2,5,2.27,1.4,M,-26.6,M,0000,0000*6A
$GPGSA,A,3,01,31,11,22,32,,,,,,,,3.87,2.27,3.13*0A
$GPGSV,2,1,08,31,66,095,35,32,60,325,38,01,55,272,33,48,45,197,38*7D
$GPGSV,2,2,08,11,41,235,31,14,25,055,,22,16,113,30,25,09,053,*7F
$GPRMC,170649.000,A,3700.0640,N,12203.7551,W,0.00,5.12,230413,,,D*77
$GPVTG,5.12,T,,M,0.00,N,0.00,K,D*3E
$GPGGA,170650.000,3700.0640,N,12203.7551,W,2,5,1.77,1.4,M,-26.6,M,0000,0000*64
$GPGSA,A,3,01,31,11,22,32,,,,,,,,2.01,1.77,0.95*0E
$GPRMC,170650.000,A,3700.0640,N,12203.7551,W,0.00,5.12,230413,,,D*7F
$GPVTG,5.12,T,,M,0.00,N,0.00,K,D*3E
$GPGGA,170651.000,3700.0640,N,12203.7551,W,2,5,2.27,1.4,M,-26.6,M,0000,0000*63
$GPGSA,A,3,01,31,11,22,32,,,,,,,,3.86,2.27,3.13*0B
$GPRMC,170651.000,A,3700.0640,N,12203.7551,W,0.00,5.12,230413,,,D*7E
$GPVTG,5.12,T,,M,0.00,N,0.00,K,D*3E
$GPGGA,170652.000,3700.0640,N,12203.7551,W,2,5,1.77,1.4,M,-26.6,M,0000,0000*66
$GPGSA,A,3,01,31,11,22,32,,,,,,,,2.01,1.77,0.95*0E
$GPRMC,170652.000,A,3700.0640,N,12203.7551,W,0.00,5.12,230413,,,D*7D
$GPVTG,5.12,T,,M,0.00,N,0.00,K,D*3E
$GPGGA,170653.000,3700.0640,N,12203.7551,W,2,5,1.77,1.4,M,-26.6,M,0000,0000*67
$GPGSA,A,3,01,31,11,22,32,,,,,,,,2.01,1.77,0.95*0E
$GPRMC,170653.000,A,3700.0640,N,12203.7551,W,0.00,5.12,230413,,,D*7C
$GPVTG,5.12,T,,M,0.00,N,0.00,K,D*3E
$GPGGA,170654.000,3700.0640,N,12203.7551,W,2,5,2.27,1.4,M,-26.6,M,0000,0000*66
$GPGSA,A,3,01,31,11,22,32,,,,,,,,3.87,2.27,3.13*0A
$GPGSV,2,1,08,31,66,095,35,32,60,325,38,01,55,272,33,48,45,197,38*7D
$GPGSV,2,2,08,11,41,235,32,14,25,055,,22,16,113,29,25,09,053,*74
$GPRMC,170654.000,A,3700.0640,N,12203.7551,W,0.00,5.12,230413,,,D*7B
$GPVTG,5.12,T,,M,0.00,N,0.00,K,D*3E
$GPGGA,170655.000,3700.0640,N,12203.7551,W,2,5,2.27,1.4,M,-26.6,M,0000,0000*67
$GPGSA,A,3,01,31,11,22,32,,,,,,,,3.87,2.27,3.13*0A
$GPRMC,170655.000,A,3700.0640,N,12203.7551,W,0.00,5.12,230413,,,D*7A
$GPVTG,5.12,T,,M,0.00,N,0.00,K,D*3E
$GPGGA,170656.000,3700.0640,N,12203.7551,W,2,5,1.77,1.4,M,-26.6,M,0000,0000*62
$GPGSA,A,3,01,31,11,22,32,,,,,,,,2.01,1.77,0.95*0E
$GPRMC,170656.000,A,3700.0640,N,12203.7551,W,0.00,5.12,230413,,,D*79
$GPVTG,5.12,T,,M,0.00,N,0.00,K,D*3E
$GPGGA,170657.000,3700.0640,N,12203.7551,W,2,5,2.28,1.4,M,-26.6,M,0000,0000*6A
$GPGSA,A,3,01,31,11,22,32,,,,,,,,3.87,2.28,3.13*05
$GPRMC,170657.000,A,3700.0640,N,12203.7551,W,0.00,5.12,230413,,,D*78
$GPVTG,5.12,T,,M,0.00,N,0.00,K,D*3E
$GPGGA,170658.000,3700.0640,N,12203.7551,W,2,5,1.77,1.4,M,-26.6,M,0000,0000*6C
$GPGSA,A,3,01,31,11,22,32,,,,,,,,2.01,1.77,0.95*0E
$GPRMC,170658.000,A,3700.0640,N,12203.7551,W,0.00,5.12,230413,,,D*77
$GPVTG,5.12,T,,M,0.00,N,0.00,K,D*3E
$GPGGA,170659.000,3700.0640,N,12203.7551,W,2,5,2.28,1.4,M,-26.6,M,0000,0000*64
$GPGSA,A,3,01,31,11,22,32,,,,,,,,3.87,2.28,3.13*05
$GPGSV,2,1,08,31,66,095,35,32,60,325,38,01,55,272,33,48,45,197,38*7D
$GPGSV,2,2,08,11,41,235,34,14,25,055,,22,15,113,27,25,09,053,*7F
$GPRMC,170659.000,A,3700.0640,N,12203.7551,W,0.00,5.12,230413,,,D*76
$GPVTG,5.12,T,,M,0.00,N,0.00,K,D*3E
$GPGGA,170700.000,3700.0640,N,12203.7551,W,2,5,1.77,1.4,M,-26.6,M,0000,0000*60
$GPGSA,A,3,01,31,11,22,32,,,,,,,,2.01,1.77,0.95*0E
$GPRMC,170700.000,A,3700.0640,N,12203.7551,W,0.00,5.12,230413,,,D*7B
$GPVTG,5.12,T,,M,0.00,N,0.00,K,D*3E
$GPGGA,170701.000,3700.0640,N,12203.7551,W,2,5,1.77,1.4,M,-26.6,M,0000,0000*61
$GPGSA,A,3,01,31,11,22,32,,,,,,,,2.01,1.77,0.95*0E
$GPRMC,170701.000,A,3700.0640,N,12203.7551,W,0.00,5.12,230413,,,D*7A
$GPVTG,5.12,T,,M,0.00,N,0.00,K,D*3E
$GPGGA,170702.000,3700.0640,N,12203.7551,W,2,5,1.77,1.4,M,-26.6,M,0000,0000*62
$GPGSA,A,3,01,31,11,22,32,,,,,,,,2.01,1.77,0.95*0E
$GPRMC,170702.000,A,3700.0640,N,12203.7551,W,0.00,5.12,230413,,,D*79
$GPVTG,5.12,T,,M,0.00,N,0.00,K,D*3E
$GPGGA,170703.000,3700.0640,N,12203.7551,W,2,5,1.77,1.4,M,-26.6,M,0000,0000*63
$GPGSA,A,3,01,31,11,22,32,,,,,,,,2.01,1.77,0.95*0E
$GPRMC,170703.000,A,3700.0640,N,12203.7551,W,0.00,5.12,230413,,,D*78
$GPVTG,5.12,T,,M,0.00,N,0.00,K,D*3E
$GPGGA,170704.000,3700.0640,N,12203.7551,W,2,5,1.77,1.4,M,-26.6,M,0000,0000*64
$GPGSA,A,3,01,31,11,22,32,,,,,,,,2.01,1.77,0.95*0E
$GPGSV,2,1,08,31,66,094,35,32,60,325,38,01,55,272,33,48,45,197,37*73
$GPGSV,2,2,08,11,41,235,35,14,25,055,,22,15,113,26,25,09,053,*7F
$GPRMC,170704.000,A,3700.0640,N,12203.7551,W,0.00,5.12,230413,,,D*7F
$GPVTG,5.12,T,,M,0.00,N,0.00,K,D*3E
$GPGGA,170705.000,3700.0640,N,12203.7551,W,2,5,1.77,1.4,M,-26.6,M,0000,0000*65
$GPGSA,A,3,01,31,11,22,32,,,,,,,,2.01,1.77,0.95*0E
$GPRMC,170705.000,A,3700.0640,N,12203.7551,W,0.00,5.12,230413,,,D*7E
$GPVTG,5.12,T,,M,0.00,N,0.00,K,D*3E
$GPGGA,170706.000,3700.0640,N,12203.7551,W,2,5,1.77,1.4,M,-26.6,M,0000,0000*66
$GPGSA,A,3,01,31,11,22,32,,,,,,,,2.01,1.77,0.95*0E
$GPRMC,170706.000,A,3700.0640,N,12203.7551,W,0.00,5.12,230413,,,D*7D
$GPVTG,5.12,T,,M,0.00,N,0.00,K,D*3E
$GPGGA,170707.000,3700.0640,N,12203.7551,W,2,5,1.77,1.4,M,-26.6,M,0000,0000*67
$GPGSA,A,3,01,31,11,22,32,,,,,,,,2.01,1.77,0.95*0E
$GPRMC,170707.000,A,3700.0640,N,12203.7551,W,0.00,5.12,230413,,,D*7C
$GPVTG,5.12,T,,M,0.00,N,0.00,K,D*3E
$GPGGA,170708.000,3700.0640,N,12203.7551,W,2,5,1.77,1.4,M,-26.6,M,0000,0000*68
$GPGSA,A,3,01,31,11,22,32,,,,,,,,2.01,1.77,0.95*0E
$GPRMC,170708.000,A,3700.0640,N,12203.7551,W,0.00,5.12,230413,,,D*73
$GPVTG,5.12,T,,M,0.00,N,0.00,K,D*3E
$GPGGA,170709.000,3700.0640,N,12203.7551,W,2,5,1.77,1.4,M,-26.6,M,0000,0000*69
$GPGSA,A,3,01,31,11,22,32,,,,,,,,2.01,1.77,0.95*0E
$GPGSV,2,1,08,31,66,094,35,32,60,325,38,01,55,272,32,48,45,197,38*7D
$GPGSV,2,2,08,11,41,235,35,14,25,055,,22,15,113,22,25,09,053,*7B
$GPRMC,170709.000,A,3700.0640,N,12203.7551,W,0.00,5.12,230413,,,D*72
$GPVTG,5.12,T,,M,0.00,N,0.00,K,D*3E
$GPGGA,170710.000,3700.0640,N,12203.7551,W,2,5,1.77,1.4,M,-26.6,M,0000,0000*61
$GPGSA,A,3,01,31,11,22,32,,,,,,,,2.01,1.77,0.95*0E
$GPRMC,170710.000,A,3700.0640,N,12203.7551,W,0.00,5.12,230413,,,D*7A
$GPVTG,5.12,T,,M,0.00,N,0.00,K,D*3E
$GPGGA,170711.000,3700.0640,N,12203.7551,W,2,5,1.77,1.4,M,-26.6,M,0000,0000*60
$GPGSA,A,3,01,31,11,22,32,,,,,,,,2.01,1.77,0.95*0E
$GPRMC,170711.000,A,3700.0640,N,12203.7551,W,0.00,5.12,230413,,,D*7B
$GPVTG,5.12,T,,M,0.00,N,0.00,K,D*3E
$GPGGA,170712.000,3700.0640,N,12203.7551,W,2,5,1.77,1.4,M,-26.6,M,0000,0000*63
$GPGSA,A,3,01,31,11,22,32,,,,,,,,2.01,1.77,0.95*0E
$GPRMC,170712.000,A,3700.0640,N,12203.7551,W,0.00,5.12,230413,,,D*78
$GPVTG,5.12,T,,M,0.00,N,0.00,K,D*3E
$GPGGA,170713.000,3700.0640,N,12203.7551,W,2,5,1.77,1.4,M,-26.6,M,0000,0000*62
$GPGSA,A,3,01,31,11,22,32,,,,,,,,2.01,1.77,0.95*0E
$GPRMC,170713.000,A,3700.0640,N,12203.7551,W,0.00,5.12,230413,,,D*79
$GPVTG,5.12,T,,M,0.00,N,0.00,K,D*3E
$GPGGA,170714.000,3700.0640,N,12203.7551,W,2,5,1.77,1.4,M,-26.6,M,0000,0000*65
$GPGSA,A,3,01,31,11,22,32,,,,,,,,2.01,1.77,0.95*0E
$GPGSV,2,1,08,31,66,094,35,32,60,325,38,01,55,272,31,48,45,197,38*7E
$GPGSV,2,2,08,11,41,235,35,14,25,055,,22,15,113,18,25,09,053,*72
$GPRMC,170714.000,A,3700.0640,N,12203.7551,W,0.00,5.12,230413,,,D*7E
$GPVTG,5.12,T,,M,0.00,N,0.00,K,D*3E
$GPGGA,170715.000,3700.0640,N,12203.7551,W,2,5,1.77,1.4,M,-26.6,M,0000,0000*64
$GPGSA,A,3,01,31,11,22,32,,,,,,,,2.01,1.77,0.95*0E
$GPRMC,170715.000,A,3700.0640,N,12203.7551,W,0.00,5.12,230413,,,D*7F
$GPVTG,5.12,T,,M,0.00,N,0.00,K,D*3E
$GPGGA,170716.000,3700.0640,N,12203.7551,W,2,5,1.76,1.4,M,-26.6,M,0000,0000*66
$GPGSA,A,3,01,31,11,22,32,,,,,,,,2.01,1.76,0.95*0F
$GPRMC,170716.000,A,3700.0640,N,12203.7551,W,0.00,5.12,230413,,,D*7C
$GPVTG,5.12,T,,M,0.00,N,0.00,K,D*3E
$GPGGA,170717.000,3700.0640,N,12203.7551,W,2,5,1.77,1.4,M,-26.6,M,0000,0000*66
$GPGSA,A,3,01,31,11,22,32,,,,,,,,2.01,1.77,0.95*0E
$GPRMC,170717.000,A,3700.0640,N,12203.7551,W,0.00,5.12,230413,,,D*7D
$GPVTG,5.12,T,,M,0.00,N,0.00,K,D*3E
$GPGGA,170718.000,3700.0640,N,12203.7551,W,2,5,1.76,1.4,M,-26.6,M,0000,0000*68
$GPGSA,A,3,01,31,11,22,32,,,,,,,,2.01,1.76,0.95*0F
$GPRMC,170718.000,A,3700.0640,N,12203.7551,W,0.00,5.12,230413,,,D*72
$GPVTG,5.12,T,,M,0.00,N,0.00,K,D*3E
$GPGGA,170719.000,3700.0640,N,12203.7551,W,2,5,1.77,1.4,M,-26.6,M,0000,0000*68
$GPGSA,A,3,01,31,11,22,32,,,,,,,,2.01,1.77,0.95*0E
$GPGSV,2,1,08,31,66,094,35,32,60,325,38,01,55,272,31,48,45,197,38*7E
$GPGSV,2,2,08,11,41,235,35,14,25,055,,22,15,113,18,25,09,053,*72
$GPRMC,170719.000,A,3700.0640,N,12203.7551,W,0.00,5.12,230413,,,D*73
$GPVTG,5.12,T,,M,0.00,N,0.00,K,D*3E
$GPGGA,170720.000,3700.0640,N,12203.7551,W,2,5,1.76,1.4,M,-26.6,M,0000,0000*63
$GPGSA,A,3,01,31,11,22,32,,,,,,,,2.01,1.76,0.95*0F
$GPRMC,170720.000,A,3700.0640,N,12203.7551,W,0.00,5.12,230413,,,D*79
$GPVTG,5.12,T,,M,0.00,N,0.00,K,D*3E
$GPGGA,170721.000,3700.0640,N,12203.7551,W,2,5,1.76,1.4,M,-26.6,M,0000,0000*62
$GPGSA,A,3,01,31,11,22,32,,,,,,,,2.01,1.76,0.95*0F
$GPRMC,170721.000,A,3700.0640,N,12203.7551,W,0.00,5.12,230413,,,D*78
$GPVTG,5.12,T,,M,0.00,N,0.00,K,D*3E
$GPGGA,170722.000,3700.0640,N,12203.7551,W,2,5,1.76,1.4,M,-26.6,M,0000,0000*61
$GPGSA,A,3,01,31,11,22,32,,,,,,,,2.01,1.76,0.95*0F
$GPRMC,170722.000,A,3700.0640,N,12203.7551,W,0.00,5.12,230413,,,D*7B
$GPVTG,5.12,T,,M,0.00,N,0.00,K,D*3E
$GPGGA,170723.000,3700.0640,N,12203.7551,W,2,5,1.76,1.4,M,-26.6,M,0000,0000*60
$GPGSA,A,3,01,31,11,22,32,,,,,,,,2.00,1.76,0.95*0E
$GPRMC,170723.000,A,3700.0640,N,12203.7551,W,0.00,5.12,230413,,,D*7A
$GPVTG,5.12,T,,M,0.00,N,0.00,K,D*3E
$GPGGA,170724.000,3700.0640,N,12203.7551,W,2,5,2.29,1.4,M,-26.6,M,0000,0000*6E
$GPGSA,A,3,01,31,11,22,32,,,,,,,,3.89,2.29,3.15*0C
$GPGSV,2,1,08,31,66,094,36,32,60,325,38,01,55,272,33,48,45,197,39*7E
$GPGSV,2,2,08,11,41,235,33,14,25,055,,22,15,113,16,25,09,053,*7A
$GPRMC,170724.000,A,3700.0640,N,12203.7551,W,0.00,5.12,230413,,,D*7D
$GPVTG,5.12,T,,M,0.00,N,0.00,K,D*3E
$GPGGA,170725.000,3700.0640,N,12203.7551,W,2,5,1.76,1.4,M,-26.6,M,0000,0000*66
$GPGSA,A,3,01,31,11,22,32,,,,,,,,2.00,1.76,0.95*0E
$GPRMC,170725.000,A,3700.0640,N,12203.7551,W,0.00,5.12,230413,,,D*7C
$GPVTG,5.12,T,,M,0.00,N,0.00,K,D*3E
$GPGGA,170726.000,3700.0640,N,12203.7551,W,2,5,1.76,1.4,M,-26.6,M,0000,0000*65
$GPGSA,A,3,01,31,11,22,32,,,,,,,,2.00,1.76,0.95*0E
$GPRMC,170726.000,A,3700.0640,N,12203.7551,W,0.00,5.12,230413,,,D*7F
$GPVTG,5.12,T,,M,0.00,N,0.00,K,D*3E
$GPGGA,170727.000,3700.0640,N,12203.7551,W,2,5,1.76,1.4,M,-26.6,M,0000,0000*64
$GPGSA,A,3,01,31,11,22,32,,,,,,,,2.00,1.76,0.95*0E
$GPRMC,170727.000,A,3700.0640,N,12203.7551,W,0.00,5.12,230413,,,D*7E
$GPVTG,5.12,T,,M,0.00,N,0.00,K,D*3E
$GPGGA,170728.000,3700.0640,N,12203.7551,W,2,5,1.76,1.4,M,-26.6,M,0000,0000*6B
$GPGSA,A,3,01,31,11,22,32,,,,,,,,2.00,1.76,0.95*0E
$GPRMC,170728.000,A,3700.0640,N,12203.7551,W,0.00,5.12,230413,,,D*71
$GPVTG,5.12,T,,M,0.00,N,0.00,K,D*3E
$GPGGA,170729.000,3700.0640,N,12203.7551,W,2,5,1.76,1.4,M,-26.6,M,0000,0000*6A
$GPGSA,A,3,01,31,11,22,32,,,,,,,,2.00,1.76,0.95*0E
$GPGSV,2,1,08,31,66,094,36,32,60,325,38,01,55,272,31,48,45,197,37*72
$GPGSV,2,2,08,11,41,235,32,14,25,055,,22,15,113,18,25,09,053,*75
$GPRMC,170729.000,A,3700.0640,N,12203.7551,W,0.00,5.12,230413,,,D*70
$GPVTG,5.12,T,,M,0.00,N,0.00,K,D*3E
$GPGGA,170730.000,3700.0640,N,12203.7551,W,2,5,1.76,1.4,M,-26.6,M,0000,0000*62
$GPGSA,A,3,01,31,11,22,32,,,,,,,,2.00,1.76,0.95*0E
$GPRMC,170730.000,A,3700.0640,N,12203.7551,W,0.00,5.12,230413,,,D*78
$GPVTG,5.12,T,,M,0.00,N,0.00,K,D*3E
$GPGGA,170731.000,3700.0640,N,12203.7551,W,2,5,2.29,1.4,M,-26.6,M,0000,0000*6A
$GPGSA,A,3,01,31,11,22,32,,,,,,,,3.90,2.29,3.15*04
$GPRMC,170731.000,A,3700.0640,N,12203.7551,W,0.00,5.12,230413,,,D*79
$GPVTG,5.12,T,,M,0.00,N,0.00,K,D*3E
$GPGGA,170732.000,3700.0640,N,12203.7551,W,2,5,1.76,1.4,M,-26.6,M,0000,0000*60
$GPGSA,A,3,01,31,11,22,32,,,,,,,,2.00,1.76,0.95*0E
$GPRMC,170732.000,A,3700.0640,N,12203.7551,W,0.00,5.12,230413,,,D*7A
$GPVTG,5.12,T,,M,0.00,N,0.00,K,D*3E
$GPGGA,170733.000,3700.0640,N,12203.7551,W,2,5,1.76,1.4,M,-26.6,M,0000,0000*61
$GPGSA,A,3,01,31,11,22,32,,,,,,,,2.00,1.76,0.95*0E
$GPRMC,170733.000,A,3700.0640,N,12203.7551,W,0.00,5.12,230413,,,D*7B
$GPVTG,5.12,T,,M,0.00,N,0.00,K,D*3E
$GPGGA,170734.000,3700.0640,N,12203.7551,W,2,5,1.76,1.4,M,-26.6,M,0000,0000*66
$GPGSA,A,3,01,31,11,22,32,,,,,,,,2.00,1.76,0.95*0E
$GPGSV,2,1,08,31,66,094,36,32,60,325,38,01,55,272,29,48,45,197,39*75
$GPGSV,2,2,08,11,41,235,31,14,25,055,,22,15,113,23,25,09,053,*7E
$GPRMC,170734.000,A,3700.0640,N,12203.7551,W,0.00,5.12,230413,,,D*7C
$GPVTG,5.12,T,,M,0.00,N,0.00,K,D*3E
$GPGGA,170735.000,3700.0640,N,12203.7551,W,2,5,1.76,1.4,M,-26.6,M,0000,0000*67
$GPGSA,A,3,01,31,11,22,32,,,,,,,,2.00,1.76,0.95*0E
$GPRMC,170735.000,A,3700.0640,N,12203.7551,W,0.00,5.12,230413,,,D*7D
$GPVTG,5.12,T,,M,0.00,N,0.00,K,D*3E
$GPGGA,170736.000,3700.0640,N,12203.7551,W,2,5,1.76,1.4,M,-26.6,M,0000,0000*64
$GPGSA,A,3,01,31,11,22,32,,,,,,,,2.00,1.76,0.95*0E
$GPRMC,170736.000,A,3700.0640,N,12203.7551,W,0.00,5.12,230413,,,D*7E
$GPVTG,5.12,T,,M,0.00,N,0.00,K,D*3E
$GPGGA,170737.000,3700.0640,N,12203.7551,W,2,5,1.76,1.4,M,-26.6,M,0000,0000*65
$GPGSA,A,3,01,31,11,22,32,,,,,,,,2.00,1.76,0.95*0E
$GPRMC,170737.000,A,3700.0640,N,12203.7551,W,0.00,5.12,230413,,,D*7F
$GPVTG,5.12,T,,M,0.00,N,0.00,K,D*3E
$GPGGA,170738.000,3700.0640,N,12203.7551,W,2,5,1.76,1.4,M,-26.6,M,0000,0000*6A
$GPGSA,A,3,01,31,11,22,32,,,,,,,,2.00,1.76,0.95*0E
$GPRMC,170738.000,A,3700.0640,N,12203.7551,W,0.00,5.12,230413,,,D*70
$GPVTG,5.12,T,,M,0.00,N,0.00,K,D*3E
$GPGGA,170739.000,3700.0640,N,12203.7551,W,2,5,1.76,1.4,M,-26.6,M,0000,0000*6B
$GPGSA,A,3,01,31,11,22,32,,,,,,,,2.00,1.76,0.95*0E
$GPGSV,2,1,08,31,66,093,35,32,60,325,39,01,55,271,31,48,45,197,41*75
$GPGSV,2,2,08,11,41,235,28,14,25,055,,22,15,113,26,25,09,053,*73
$GPRMC,170739.000,A,3700.0640,N,12203.7551,W,0.00,5.12,230413,,,D*71
$GPVTG,5.12,T,,M,0.00,N,0.00,K,D*3E
$GPGGA,170740.000,3700.0640,N,12203.7551,W,2,5,1.76,1.4,M,-26.6,M,0000,0000*65
$GPGSA,A,3,01,31,11,22,32,,,,,,,,2.00,1.76,0.95*0E
$GPRMC,170740.000,A,3700.0640,N,12203.7551,W,0.00,5.12,230413,,,D*7F
$GPVTG,5.12,T,,M,0.00,N,0.00,K,D*3E
$GPGGA,170741.000,3700.0640,N,12203.7551,W,2,5,1.76,1.4,M,-26.6,M,0000,0000*64
$GPGSA,A,3,01,31,11,22,32,,,,,,,,2.00,1.76,0.95*0E
$GPRMC,170741.000,A,3700.0640,N,12203.7551,W,0.00,5.12,230413,,,D*7E
$GPVTG,5.12,T,,M,0.00,N,0.00,K,D*3E
$GPGGA,170742.000,3700.0640,N,12203.7551,W,2,5,1.76,1.4,M,-26.6,M,0000,0000*67
$GPGSA,A,3,01,31,11,22,32,,,,,,,,2.00,1.76,0.95*0E
$GPRMC,170742.000,A,3700.0640,N,12203.7551,W,0.00,5.12,230413,,,D*7D
$GPVTG,5.12,T,,M,0.00,N,0.00,K,D*3E
$GPGGA,170743.000,3700.0640,N,12203.7551,W,2,5,1.76,1.4,M,-26.6,M,0000,0000*66
$GPGSA,A,3,01,31,11,22,32,,,,,,,,2.00,1.76,0.95*0E
$GPRMC,170743.000,A,3700.0640,N,12203.7551,W,0.00,5.12,230413,,,D*7C
$GPVTG,5.12,T,,M,0.00,N,0.00,K,D*3E
$GPGGA,170744.000,3700.0640,N,12203.7551,W,2,5,1.76,1.4,M,-26.6,M,0000,0000*61
$GPGSA,A,3,01,31,11,22,32,,,,,,,,2.00,1.76,0.95*0E
$GPGSV,2,1,08,31,66,093,35,32,60,325,38,01,55,271,33,48,45,197,38*78
$GPGSV,2,2,08,11,41,235,28,14,25,055,,22,15,113,27,25,09,053,*72
$GPRMC,170744.000,A,3700.0640,N,12203.7551,W,0.00,5.12,230413,,,D*7B
$GPVTG,5.12,T,,M,0.00,N,0.00,K,D*3E
$GPGGA,170745.000,3700.0640,N,12203.7551,W,2,5,1.76,1.4,M,-26.6,M,0000,0000*60
$GPGSA,A,3,01,31,11,22,32,,,,,,,,2.00,1.76,0.95*0E
$GPRMC,170745.000,A,3700.0640,N,12203.7551,W,0.00,5.12,230413,,,D*7A
$GPVTG,5.12,T,,M,0.00,N,0.00,K,D*3E
$GPGGA,170746.000,3700.0640,N,12203.7551,W,2,5,1.76,1.4,M,-26.6,M,0000,0000*63
$GPGSA,A,3,01,31,11,22,32,,,,,,,,2.00,1.76,0.95*0E
$GPRMC,170746.000,A,3700.0640,N,12203.7551,W,0.00,5.12,230413,,,D*79
$GPVTG,5.12,T,,M,0.00,N,0.00,K,D*3E
$GPGGA,170747.000,3700.0640,N,12203.7551,W,2,5,1.76,1.4,M,-26.6,M,0000,0000*62
$GPGSA,A,3,01,31,11,22,32,,,,,,,,2.00,1.76,0.95*0E
$GPRMC,170747.000,A,3700.0640,N,12203.7551,W,0.00,5.12,230413,,,D*78
$GPVTG,5.12,T,,M,0.00,N,0.00,K,D*3E
$GPGGA,170748.000,3700.0640,N,12203.7551,W,2,5,1.76,1.4,M,-26.6,M,0000,0000*6D
$GPGSA,A,3,01,31,11,22,32,,,,,,,,2.00,1.76,0.95*0E
$GPRMC,170748.000,A,3700.0640,N,12203.7551,W,0.00,5.12,230413,,,D*77
$GPVTG,5.12,T,,M,0.00,N,0.00,K,D*3E
$GPGGA,170749.000,3700.0640,N,12203.7551,W,2,5,1.76,1.4,M,-26.6,M,0000,0000*6C
$GPGSA,A,3,01,31,11,22,32,,,,,,,,2.00,1.76,0.95*0E
$GPGSV,2,1,08,31,66,093,35,32,60,325,38,01,55,271,34,48,45,197,38*7F
$GPGSV,2,2,08,11,41,235,26,14,25,055,,22,15,113,27,25,09,053,*7C
$GPRMC,170749.000,A,3700.0640,N,12203.7551,W,0.00,5.12,230413,,,D*76
$GPVTG,5.12,T,,M,0.00,N,0.00,K,D*3E
$GPGGA,170750.000,3700.0640,N,12203.7551,W,2,5,1.76,1.4,M,-26.6,M,0000,0000*64
$GPGSA,A,3,01,31,11,22,32,,,,,,,,2.00,1.76,0.95*0E
$GPRMC,170750.000,A,3700.0640,N,12203.7551,W,0.00,5.12,230413,,,D*7E
$GPVTG,5.12,T,,M,0.00,N,0.00,K,D*3E
$GPGGA,170751.000,3700.0640,N,12203.7551,W,2,5,1.76,1.4,M,-26.6,M,0000,0000*65
$GPGSA,A,3,01,31,11,22,32,,,,,,,,2.00,1.76,0.95*0E
$GPRMC,170751.000,A,3700.0640,N,12203.7551,W,0.00,5.12,230413,,,D*7F
$GPVTG,5.12,T,,M,0.00,N,0.00,K,D*3E
$GPGGA,170752.000,3700.0640,N,12203.7551,W,2,5,1.76,1.4,M,-26.6,M,0000,0000*66
$GPGSA,A,3,01,31,11,22,32,,,,,,,,2.00,1.76,0.95*0E
$GPRMC,170752.000,A,3700.0640,N,12203.7551,W,0.00,5.12,230413,,,D*7C
$GPVTG,5.12,T,,M,0.00,N,0.00,K,D*3E
$GPGGA,170753.000,3700.0640,N,12203.7551,W,2,5,1.76,1.4,M,-26.6,M,0000,0000*67
$GPGSA,A,3,01,31,11,22,32,,,,,,,,2.00,1.76,0.95*0E
$GPRMC,170753.000,A,3700.0640,N,12203.7551,W,0.00,5.12,230413,,,D*7D
$GPVTG,5.12,T,,M,0.00,N,0.00,K,D*3E
$GPGGA,170754.000,3700.0640,N,12203.7551,W,2,5,1.76,1.4,M,-26.6,M,0000,0000*60
$GPGSA,A,3,01,31,11,22,32,,,,,,,,2.00,1.76,0.95*0E
$GPGSV,2,1,08,31,66,093,35,32,60,325,38,01,55,271,34,48,45,197,38*7F
$GPGSV,2,2,08,11,41,235,27,14,25,055,,22,15,113,27,25,09,053,*7D
$GPRMC,170754.000,A,3700.0640,N,12203.7551,W,0.00,5.12,230413,,,D*7A
$GPVTG,5.12,T,,M,0.00,N,0.00,K,D*3E
$GPGGA,170755.000,3700.0640,N,12203.7551,W,2,5,1.76,1.4,M,-26.6,M,0000,0000*61
$GPGSA,A,3,01,31,11,22,32,,,,,,,,2.00,1.76,0.95*0E
$GPRMC,170755.000,A,3700.0640,N,12203.7551,W,0.00,5.12,230413,,,D*7B
$GPVTG,5.12,T,,M,0.00,N,0.00,K,D*3E
$GPGGA,170756.000,3700.0640,N,12203.7551,W,2,5,1.76,1.4,M,-26.6,M,0000,0000*62
$GPGSA,A,3,01,31,11,22,32,,,,,,,,2.00,1.76,0.95*0E
$GPRMC,170756.000,A,3700.0640,N,12203.7551,W,0.00,5.12,230413,,,D*78
$GPVTG,5.12,T,,M,0.00,N,0.00,K,D*3E
$GPGGA,170757.000,3700.0640,N,12203.7551,W,2,5,1.76,1.4,M,-26.6,M,0000,0000*63
$GPGSA,A,3,01,31,11,22,32,,,,,,,,2.00,1.76,0.95*0E
$GPRMC,170757.000,A,3700.0640,N,12203.7551,W,0.00,5.12,230413,,,D*79
$GPVTG,5.12,T,,M,0.00,N,0.00,K,D*3E
$GPGGA,170758.000,3700.0640,N,12203.7551,W,2,5,1.76,1.4,M,-26.6,M,0000,0000*6C
$GPGSA,A,3,01,31,11,22,32,,,,,,,,2.00,1.76,0.95*0E
$GPRMC,170758.000,A,3700.0640,N,12203.7551,W,0.00,5.12,230413,,,D*76
$GPVTG,5.12,T,,M,0.00,N,0.00,K,D*3E
$GPGGA,170759.000,3700.0640,N,12203.7551,W,2,5,1.76,1.4,M,-26.6,M,0000,0000*6D
$GPGSA,A,3,01,31,11,22,32,,,,,,,,2.00,1.76,0.95*0E
$GPGSV,2,1,08,31,66,093,35,32,60,325,38,01,55,271,36,48,45,197,39*7C
$GPGSV,2,2,08,11,41,235,30,14,25,055,,22,15,113,26,25,09,053,*7A
$GPRMC,170759.000,A,3700.0640,N,12203.7551,W,0.00,5.12,230413,,,D*77
$GPVTG,5.12,T,,M,0.00,N,0.00,K,D*3E
$GPGGA,170800.000,3700.0640,N,12203.7551,W,2,5,1.76,1.4,M,-26.6,M,0000,0000*6E
$GPGSA,A,3,01,31,11,22,32,,,,,,,,2.00,1.76,0.95*0E
$GPRMC,170800.000,A,3700.0640,N,12203.7551,W,0.00,5.12,230413,,,D*74
$GPVTG,5.12,T,,M,0.00,N,0.00,K,D*3E
$GPGGA,170801.000,3700.0640,N,12203.7551,W,2,5,1.76,1.4,M,-26.6,M,0000,0000*6F
$GPGSA,A,3,01,31,11,22,32,,,,,,,,2.00,1.76,0.95*0E
$GPRMC,170801.000,A,3700.0640,N,12203.7551,W,0.00,5.12,230413,,,D*75
$GPVTG,5.12,T,,M,0.00,N,0.00,K,D*3E
$GPGGA,170802.000,3700.0640,N,12203.7551,W,2,5,1.76,1.4,M,-26.6,M,0000,0000*6C
$GPGSA,A,3,01,31,11,22,32,,,,,,,,2.00,1.76,0.95*0E
$GPRMC,170802.000,A,3700.0640,N,12203.7551,W,0.00,5.12,230413,,,D*76
$GPVTG,5.12,T,,M,0.00,N,0.00,K,D*3E
$GPGGA,170803.000,3700.0640,N,12203.7551,W,2,5,1.76,1.4,M,-26.6,M,0000,0000*6D
$GPGSA,A,3,01,31,11,22,32,,,,,,,,2.00,1.76,0.95*0E
$GPRMC,170803.000,A,3700.0640,N,12203.7551,W,0.00,5.12,230413,,,D*77
$GPVTG,5.12,T,,M,0.00,N,0.00,K,D*3E
$GPGGA,170804.000,3700.0640,N,12203.7551,W,2,5,1.76,1.4,M,-26.6,M,0000,0000*6A
$GPGSA,A,3,01,31,11,22,32,,,,,,,,2.00,1.76,0.95*0E
$GPGSV,2,1,08,31,66,093,35,32,60,325,38,01,55,271,36,48,45,197,38*7D
$GPGSV,2,2,08,11,41,235,31,14,25,055,,22,15,113,25,25,09,052,*79
$GPRMC,170804.000,A,3700.0640,N,12203.7551,W,0.00,5.12,230413,,,D*70
$GPVTG,5.12,T,,M,0.00,N,0.00,K,D*3E
$GPGGA,170805.000,3700.0640,N,12203.7551,W,2,5,1.76,1.4,M,-26.6,M,0000,0000*6B
$GPGSA,A,3,01,31,11,22,32,,,,,,,,2.00,1.76,0.95*0E
$GPRMC,170805.000,A,3700.0640,N,12203.7551,W,0.00,5.12,230413,,,D*71
$GPVTG,5.12,T,,M,0.00,N,0.00,K,D*3E
$GPGGA,170806.000,3700.0640,N,12203.7551,W,2,5,2.31,1.4,M,-26.6,M,0000,0000*68
$GPGSA,A,3,01,31,11,22,32,,,,,,,,3.93,2.31,3.17*0C
$GPRMC,170806.000,A,3700.0640,N,12203.7551,W,0.00,5.12,230413,,,D*72
$GPVTG,5.12,T,,M,0.00,N,0.00,K,D*3E
$GPGGA,170807.000,3700.0640,N,12203.7551,W,2,5,2.32,1.4,M,-26.6,M,0000,0000*6A
$GPGSA,A,3,01,31,11,22,32,,,,,,,,3.93,2.32,3.17*0F
$GPRMC,170807.000,A,3700.0640,N,12203.7551,W,0.00,5.12,230413,,,D*73
$GPVTG,5.12,T,,M,0.00,N,0.00,K,D*3E
$GPGGA,170808.000,3700.0640,N,12203.7551,W,2,5,1.76,1.4,M,-26.6,M,0000,0000*66
$GPGSA,A,3,01,31,11,22,32,,,,,,,,2.00,1.76,0.95*0E
$GPRMC,170808.000,A,3700.0640,N,12203.7551,W,0.00,5.12,230413,,,D*7C
$GPVTG,5.12,T,,M,0.00,N,0.00,K,D*3E
$GPGGA,170809.000,3700.0640,N,12203.7551,W,2,5,1.76,1.4,M,-26.6,M,0000,0000*67
$GPGSA,A,3,01,31,11,22,32,,,,,,,,2.00,1.76,0.95*0E
$GPGSV,2,1,08,31,66,093,35,32,60,325,38,01,55,271,36,48,45,197,40*72
$GPGSV,2,2,08,11,41,235,32,14,25,055,,22,15,113,26,25,09,052,*79
$GPRMC,170809.000,A,3700.0640,N,12203.7551,W,0.00,5.12,230413,,,D*7D
$GPVTG,5.12,T,,M,0.00,N,0.00,K,D*3E
$GPGGA,170810.000,3700.0640,N,12203.7551,W,2,5,1.76,1.4,M,-26.6,M,0000,0000*6F
$GPGSA,A,3,01,31,11,22,32,,,,,,,,2.00,1.76,0.95*0E
$GPRMC,170810.000,A,3700.0640,N,12203.7551,W,0.00,5.12,230413,,,D*75
$GPVTG,5.12,T,,M,0.00,N,0.00,K,D*3E
$GPGGA,170811.000,3700.0640,N,12203.7551,W,2,5,1.76,1.4,M,-26.6,M,0000,0000*6E
$GPGSA,A,3,01,31,11,22,32,,,,,,,,2.00,1.76,0.95*0E
$GPRMC,170811.000,A,3700.0640,N,12203.7551,W,0.00,5.12,230413,,,D*74
$GPVTG,5.12,T,,M,0.00,N,0.00,K,D*3E
$GPGGA,170812.000,3700.0640,N,12203.7551,W,2,5,1.76,1.4,M,-26.6,M,0000,0000*6D
$GPGSA,A,3,01,31,11,22,32,,,,,,,,2.00,1.76,0.95*0E
$GPRMC,170812.000,A,3700.0640,N,12203.7551,W,0.00,5.12,230413,,,D*77
$GPVTG,5.12,T,,M,0.00,N,0.00,K,D*3E
$GPGGA,170813.000,3700.0640,N,12203.7551,W,2,5,1.76,1.4,M,-26.6,M,0000,0000*6C
$GPGSA,A,3,01,31,11,22,32,,,,,,,,2.00,1.76,0.95*0E
$GPRMC,170813.000,A,3700.0640,N,12203.7551,W,0.00,5.12,230413,,,D*76
$GPVTG,5.12,T,,M,0.00,N,0.00,K,D*3E
$GPGGA,170814.000,3700.0640,N,12203.7551,W,2,5,1.76,1.4,M,-26.6,M,0000,0000*6B
$GPGSA,A,3,01,31,11,22,32,,,,,,,,2.00,1.76,0.95*0E
$GPGSV,2,1,08,31,66,093,35,32,60,326,38,01,55,271,36,48,45,197,39*7F
$GPGSV,2,2,08,11,41,235,32,14,25,055,,22,15,113,24,25,09,052,*7B
$GPRMC,170814.000,A,3700.0640,N,12203.7551,W,0.00,5.12,230413,,,D*71
$GPVTG,5.12,T,,M,0.00,N,0.00,K,D*3E
$GPGGA,170815.000,3700.0640,N,12203.7551,W,2,5,1.76,1.4,M,-26.6,M,0000,0000*6A
$GPGSA,A,3,01,31,11,22,32,,,,,,,,2.00,1.76,0.95*0E
$GPRMC,170815.000,A,3700.0640,N,12203.7551,W,0.00,5.12,230413,,,D*70
$GPVTG,5.12,T,,M,0.00,N,0.00,K,D*3E
$GPGGA,170816.000,3700.0640,N,12203.7551,W,2,5,1.76,1.4,M,-26.6,M,0000,0000*69
$GPGSA,A,3,01,31,11,22,32,,,,,,,,2.00,1.76,0.95*0E
$GPRMC,170816.000,A,3700.0640,N,12203.7551,W,0.00,5.12,230413,,,D*73
$GPVTG,5.12,T,,M,0.00,N,0.00,K,D*3E
