timestamp,ATTITUDE.time_boot_ms,ATTITUDE.roll,ATTITUDE.pitch,ATTITUDE.yaw,ATTITUDE.rollspeed,ATTITUDE.pitchspeed,ATTITUDE.yawspeed,LOCAL_POSITION_NED.time_boot_ms,LOCAL_POSITION_NED.x,LOCAL_POSITION_NED.y,LOCAL_POSITION_NED.z,LOCAL_POSITION_NED.vx,LOCAL_POSITION_NED.vy,LOCAL_POSITION_NED.vz,GPS_RAW_INT.time_usec,GPS_RAW_INT.fix_type,GPS_RAW_INT.lat,GPS_RAW_INT.lon,GPS_RAW_INT.alt,GPS_RAW_INT.eph,GPS_RAW_INT.epv,GPS_RAW_INT.vel,GPS_RAW_INT.cog,GPS_RAW_INT.satellites_visible,GPS_DATE_TIME.year,GPS_DATE_TIME.month,GPS_DATE_TIME.day,GPS_DATE_TIME.hour,GPS_DATE_TIME.min,GPS_DATE_TIME.sec,GPS_DATE_TIME.clockStat,GPS_DATE_TIME.visSat,GPS_DATE_TIME.useSat,GPS_DATE_TIME.GppGl,GPS_DATE_TIME.sigUsedMask,GPS_DATE_TIME.percentUsed,SLUGS_NAVIGATION.u_m,SLUGS_NAVIGATION.phi_c,SLUGS_NAVIGATION.theta_c,SLUGS_NAVIGATION.psiDot_c,SLUGS_NAVIGATION.ay_body,SLUGS_NAVIGATION.totalDist,SLUGS_NAVIGATION.dist2Go,SLUGS_NAVIGATION.fromWP,SLUGS_NAVIGATION.toWP,SLUGS_NAVIGATION.h_c,RAW_IMU.time_usec,RAW_IMU.xacc,RAW_IMU.yacc,RAW_IMU.zacc,RAW_IMU.xgyro,RAW_IMU.ygyro,RAW_IMU.zgyro,RAW_IMU.xmag,RAW_IMU.ymag,RAW_IMU.zmag,SCALED_PRESSURE.time_boot_ms,SCALED_PRESSURE.press_abs,SCALED_PRESSURE.press_diff,SCALED_PRESSURE.temperature,CPU_LOAD.sensLoad,CPU_LOAD.ctrlLoad,CPU_LOAD.batVolt,HEARTBEAT.type,HEARTBEAT.autopilot,HEARTBEAT.base_mode,HEARTBEAT.custom_mode,HEARTBEAT.system_status,HEARTBEAT.mavlink_version,SYS_STATUS.onboard_control_sensors_present,SYS_STATUS.onboard_control_sensors_enabled,SYS_STATUS.onboard_control_sensors_health,SYS_STATUS.load,SYS_STATUS.voltage_battery,SYS_STATUS.current_battery,SYS_STATUS.battery_remaining,SYS_STATUS.drop_rate_comm,SYS_STATUS.errors_comm,SYS_STATUS.errors_count1,SYS_STATUS.errors_count2,SYS_STATUS.errors_count3,SYS_STATUS.errors_count4,RC_CHANNELS_RAW.time_boot_ms,RC_CHANNELS_RAW.port,RC_CHANNELS_RAW.chan1_raw,RC_CHANNELS_RAW.chan2_raw,RC_CHANNELS_RAW.chan3_raw,RC_CHANNELS_RAW.chan4_raw,RC_CHANNELS_RAW.chan5_raw,RC_CHANNELS_RAW.chan6_raw,RC_CHANNELS_RAW.chan7_raw,RC_CHANNELS_RAW.chan8_raw,RC_CHANNELS_RAW.rssi,SERVO_OUTPUT_RAW.time_usec,SERVO_OUTPUT_RAW.port,SERVO_OUTPUT_RAW.servo1_raw,SERVO_OUTPUT_RAW.servo2_raw,SERVO_OUTPUT_RAW.servo3_raw,SERVO_OUTPUT_RAW.servo4_raw,SERVO_OUTPUT_RAW.servo5_raw,SERVO_OUTPUT_RAW.servo6_raw,SERVO_OUTPUT_RAW.servo7_raw,SERVO_OUTPUT_RAW.servo8_raw,SCALED_IMU.time_boot_ms,SCALED_IMU.xacc,SCALED_IMU.yacc,SCALED_IMU.zacc,SCALED_IMU.xgyro,SCALED_IMU.ygyro,SCALED_IMU.zgyro,SCALED_IMU.xmag,SCALED_IMU.ymag,SCALED_IMU.zmag,RAW_PRESSURE.time_usec,RAW_PRESSURE.press_abs,RAW_PRESSURE.press_diff1,RAW_PRESSURE.press_diff2,RAW_PRESSURE.temperature,MID_LVL_CMDS.target,MID_LVL_CMDS.hCommand,MID_LVL_CMDS.uCommand,MID_LVL_CMDS.rCommand,SENSOR_DIAG.float1,SENSOR_DIAG.float2,SENSOR_DIAG.int1,SENSOR_DIAG.char1,VOLT_SENSOR.r2Type,VOLT_SENSOR.voltage,VOLT_SENSOR.reading2,STATUS_GPS.csFails,STATUS_GPS.gpsQuality,STATUS_GPS.msgsType,STATUS_GPS.posStatus,STATUS_GPS.magVar,STATUS_GPS.magDir,STATUS_GPS.modeInd,NOVATEL_DIAG.timeStatus,NOVATEL_DIAG.receiverStatus,NOVATEL_DIAG.solStatus,NOVATEL_DIAG.posType,NOVATEL_DIAG.velType,NOVATEL_DIAG.posSolAge,NOVATEL_DIAG.csFails,PTZ_STATUS.zoom,PTZ_STATUS.pan,PTZ_STATUS.tilt
0.00000000,,,,,,,,,,,,,,,3208098112,0,0,0,0,0,0,0,0,0,,,,,,,,,,,,,,,,,,,,,,,,,,,,,,,,,,,,,,,,,,,,,,,,,,,,,,,,,,,,,,,,,,,,,,,,,,,,,,,,,,,,,,,,,,,,,,,,,,,,,,,,,,,,,,,,,,,,,,,,,,
3209098.11200000,,,,,,,,,,,,,,,3218098112,0,0,0,0,0,0,0,0,0,,,,,,,,,,,,,,,,,,,,,,,3216098112,0,0,0,0,0,0,0,0,0,3209098112,1014.00952148,0.0,1504,,,,1,0,64,5,4,3,0,0,0,4160,0,0,0,0,0,0,0,0,0,,,,,,,,,,,,,,,,,,,,,,,,,,,,,,,,,,,,,,,,,,,,,,,,,,,,,,,,,,,,,,,,
3219098.11200000,,,,,,,,,,,,,,,,,,,,,,,,,,,,,,,,,,,,,,,,,,,,,,,,,,,,,,,,,3219098112,1014.00952148,0.0,1504,,,,1,0,64,5,4,3,0,0,0,4159,0,0,0,0,0,0,0,0,0,,,,,,,,,,,,,,,,,,,,,,,,,,,,,,,,,,,,,,,,,,,,,,,,,,,,,,,,,,,,,,,,
3221098.11200000,,,,,,,,,,,,,,,3223098112,0,0,0,0,0,0,0,0,0,,,,,,,,,,,,,0.0316227786243,0.00128875242081,0.0,0.399659723043,-2.19869106679e-15,90.0,0.0316227786243,1,2,120,,,,,,,,,,,,,,,,,,,,,,,,,,,,,,,,,,,,,3221098112,0,13445,12881,9192,12944,7528,0,9210,0,0,3222098112,0,919,1344,1294,1288,0,0,0,0,,,,,,,,,,,,,,,,,,,,,,,,,,,,,,,,,,,,,,,,,,,
3224098.11200000,3224098112,-0.334892332554,0.341082781553,6.28318405151,-0.000412314315327,0.000412314315327,0.000139176743687,,,,,,,,3228098112,0,0,0,0,0,0,0,0,0,,,,,,,,,,,,,,,,,,,,,,,3226098112,0,0,0,0,0,0,0,0,0,,,,,,,,1,0,64,5,4,3,,,,,,,,,,,,,,,,,,,,,,,,,,,,,,,,,,,,,,,,,,,,,,,,,,,,,,,,,,,,,,,,,,,,,,,,,,,,,
3229098.11200000,,,,,,,,,,,,,,,3238098112,0,0,0,0,0,0,0,0,0,,,,,,,,,,,,,,,,,,,,,,,3236098112,0,0,0,0,0,0,0,0,0,3229098112,1014.00952148,0.0,1504,,,,1,0,64,5,4,3,0,0,0,4152,0,0,0,0,0,0,0,0,0,,,,,,,,,,,,,,,,,,,,,,,,,,,,,,,,,,,,,,,,,,,,,,,,,,,,,,,,,,,,,,,,
3239098.11200000,,,,,,,,,,,,,,,,,,,,,,,,,,,,,,,,,,,,,,,,,,,,,,,,,,,,,,,,,3239098112,1014.00952148,0.0,1504,,,,1,0,64,5,4,3,0,0,0,4162,0,0,0,0,0,0,0,0,0,,,,,,,,,,,,,,,,,,,,,,,,,,,,,,,,,,,,,,,,,,,,,,,,,,,,,,,,,,,,,,,,
3241098.11200000,,,,,,,,,,,,,,,3243098112,0,0,0,0,0,0,0,0,0,,,,,,,,,,,,,0.0316227786243,0.00128875242081,0.0,0.399659723043,-2.19683881749e-15,90.0,0.0316227786243,1,2,120,,,,,,,,,,,,,,,,,,,,,,,,,,,,,,,,,,,,,3241098112,0,13446,12882,9193,12946,7528,0,9210,0,0,3242098112,0,919,1344,1294,1288,0,0,0,0,,,,,,,,,,,,,,,,,,,,,,,,,,,,,,,,,,,,,,,,,,,
3244098.11200000,3244098112,-0.335721880198,0.341954022646,6.28318405151,-0.000412826542743,0.000412826542743,0.000139688971103,,,,,,,,3248098112,0,0,0,0,0,0,0,0,0,,,,,,,,,,,,,,,,,,,,,,,3246098112,0,0,0,0,0,0,0,0,0,,,,,,,,1,0,64,5,4,3,,,,,,,,,,,,,,,,,,,,,,,,,,,,,,,,,,,,,,,,,,,,,,,,,,,,,,,,,,,,,,,,,,,,,,,,,,,,,
3249098.11200000,,,,,,,,,,,,,,,3258098112,0,0,0,0,0,0,0,0,0,,,,,,,,,,,,,,,,,,,,,,,3256098112,0,0,0,0,0,0,0,0,0,3249098112,1014.00952148,0.0,1504,,,,1,0,64,5,4,3,0,0,0,4157,0,0,0,0,0,0,0,0,0,,,,,,,,,,,,,,,,,,,,,,,,,,,,,,,,,,,,,,,,,,,,,,,,,,,,,,,,,,,,,,,,
3259098.11200000,,,,,,,,,,,,,,,,,,,,,,,,,,,,,,,,,,,,,,,,,,,,,,,,,,,,,,,,,3259098112,1014.00952148,0.0,1504,,,,1,0,64,5,4,3,0,0,0,4156,0,0,0,0,0,0,0,0,0,,,,,,,,,,,,,,,,,,,,,,,,,,,,,,,,,,,,,,,,,,,,,,,,,,,,,,,,,,,,,,,,
3261098.11200000,,,,,,,,,,,,,,,3263098112,0,0,0,0,0,0,0,0,0,,,,,,,,,,,,,0.0316227786243,0.00128875242081,0.0,0.399659723043,-2.19320271681e-15,90.0,0.0316227786243,1,2,120,,,,,,,,,,,,,,,,,,,,,,,,,,,,,,,,,,,,,3261098112,0,13445,12879,9191,12944,7527,0,9210,0,0,3262098112,0,919,1344,1294,1288,0,0,0,0,,,,,,,,,,,,,,,,,,,,,,,,,,,,,,,,,,,,,,,,,,,
3264098.11200000,3264098112,-0.336551427841,0.342825293541,6.28318405151,-0.000413338770159,0.000413338770159,0.000140201198519,,,,,,,,3268098112,0,0,0,0,0,0,0,0,0,,,,,,,,,,,,,,,,,,,,,,,3266098112,0,0,0,0,0,0,0,0,0,,,,,,,,1,0,64,5,4,3,,,,,,,,,,,,,,,,,,,,,,,,,,,,,,,,,,,,,,,,,,,,,,,,,,,,,,,,,,,,,,,,,,,,,,,,,,,,,
3269098.11200000,,,,,,,,,,,,,,,3278098112,0,0,0,0,0,0,0,0,0,,,,,,,,,,,,,,,,,,,,,,,3276098112,0,0,0,0,0,0,0,0,0,3269098112,1014.00952148,0.0,1504,,,,1,0,64,5,4,3,0,0,0,4160,0,0,0,0,0,0,0,0,0,,,,,,,,,,,,,,,,,,,,,,,,,,,,,,,,,,,,,,,,,,,,,,,,,,,,,,,,,,,,,,,,
3279098.11200000,,,,,,,,,,,,,,,,,,,,,,,,,,,,,,,,,,,,,,,,,,,,,,,,,,,,,,,,,3279098112,1014.00952148,0.0,1504,,,,1,0,64,5,4,3,0,0,0,4154,0,0,0,0,0,0,0,0,0,,,,,,,,,,,,,,,,,,,,,,,,,,,,,,,,,,,,,,,,,,,,,,,,,,,,,,,,,,,,,,,,
3281098.11200000,,,,,,,,,,,,,,,3283098112,0,0,0,0,0,0,0,0,0,,,,,,,,,,,,,0.0316227786243,0.00128875242081,0.0,0.399659723043,-2.19305681538e-15,90.0,0.0316227786243,1,2,120,,,,,,,,,,,,,,,,,,,,,,,,,,,,,,,,,,,,,3281098112,0,13445,12881,9193,12945,7528,0,9210,0,0,3282098112,0,919,1344,1294,1288,0,0,0,0,,,,,,,,,,,,,,,,,,,,,,,,,,,,,,,,,,,,,,,,,,,
3284098.11200000,3284098112,-0.337381094694,0.343696832657,6.28318405151,-0.000413850997575,0.000413850997575,0.000140713425935,,,,,,,,3288098112,0,0,0,0,0,0,0,0,0,,,,,,,,,,,,,,,,,,,,,,,3286098112,0,0,0,0,0,0,0,0,0,,,,,,,,1,0,64,5,4,3,,,,,,,,,,,,,,,,,,,,,,,,,,,,,,,,,,,,,,,,,,,,,,,,,,,,,,,,,,,,,,,,,,,,,,,,,,,,,
3289098.11200000,,,,,,,,,,,,,,,3298098112,0,0,0,0,0,0,0,0,0,,,,,,,,,,,,,,,,,,,,,,,3296098112,0,0,0,0,0,0,0,0,0,3289098112,1014.00952148,0.0,1504,,,,1,0,64,5,4,3,0,0,0,4156,0,0,0,0,0,0,0,0,0,,,,,,,,,,,,,,,,,,,,,,,,,,,,,,,,,,,,,,,,,,,,,,,,,,,,,,,,,,,,,,,,
3299098.11200000,,,,,,,,,,,,,,,,,,,,,,,,,,,,,,,,,,,,,,,,,,,,,,,,,,,,,,,,,3299098112,1014.00952148,0.0,1504,,,,1,0,64,5,4,3,0,0,0,4156,0,0,0,0,0,0,0,0,0,,,,,,,,,,,,,,,,,,,,,,,,,,,,,,,,,,,,,,,,,,,,,,,,,,,,,,,,,,,,,,,,
3301098.11200000,,,,,,,,,,,,,,,3303098112,0,0,0,0,0,0,0,0,0,,,,,,,,,,,,,0.0316227786243,0.00128875242081,0.0,0.399659723043,-2.18608531071e-15,90.0,0.0316227786243,1,2,120,,,,,,,,,,,,,,,,,,,,,,,,,,,,,,,,,,,,,3301098112,0,13446,12882,9191,12945,7530,0,9210,0,0,3302098112,0,919,1344,1294,1288,0,0,0,0,,,,,,,,,,,,,,,,,,,,,,,,,,,,,,,,,,,,,,,,,,,
3304098.11200000,3304098112,-0.338210970163,0.344573199749,6.28318405151,-0.000414363224991,0.000414363224991,0.000141225653351,,,,,,,,3308098112,0,0,0,0,0,0,0,0,0,,,,,,,,,,,,,,,,,,,,,,,3306098112,0,0,0,0,0,0,0,0,0,,,,,,,,1,0,64,5,4,3,,,,,,,,,,,,,,,,,,,,,,,,,,,,,,,,,,,,,,,,,,,,,,,,,,,,,,,,,,,,,,,,,,,,,,,,,,,,,
3309098.11200000,,,,,,,,,,,,,,,3318098112,0,0,0,0,0,0,0,0,0,,,,,,,,,,,,,,,,,,,,,,,3316098112,0,0,0,0,0,0,0,0,0,3309098112,1014.00952148,0.0,1504,,,,1,0,64,5,4,3,0,0,0,4162,0,0,0,0,0,0,0,0,0,,,,,,,,,,,,,,,,,,,,,,,,,,,,,,,,,,,,,,,,,,,,,,,,,,,,,,,,,,,,,,,,
3319098.11200000,,,,,,,,,,,,,,,,,,,,,,,,,,,,,,,,,,,,,,,,,,,,,,,,,,,,,,,,,3319098112,1014.00952148,0.0,1504,,,,1,0,64,5,4,3,0,0,0,4152,0,0,0,0,0,0,0,0,0,,,,,,,,,,,,,,,,,,,,,,,,,,,,,,,,,,,,,,,,,,,,,,,,,,,,,,,,,,,,,,,,
3321098.11200000,,,,,,,,,,,,,,,3323098112,0,0,0,0,0,0,0,0,0,,,,,,,,,,,,,0.0316227786243,0.00128875242081,0.0,0.399659723043,-2.18318697572e-15,90.0,0.0316227786243,1,2,120,,,,,,,,,,,,,,,,,,,,,,,,,,,,,,,,,,,,,3321098112,0,13446,12882,9192,12946,7529,0,9210,0,0,3322098112,0,919,1344,1294,1288,0,0,0,0,,,,,,,,,,,,,,,,,,,,,,,,,,,,,,,,,,,,,,,,,,,
3324098.11200000,3324098112,-0.339040994644,0.345450848341,6.28318405151,-0.000414875452407,0.000414875452407,0.000141737880767,,,,,,,,3328098112,0,0,0,0,0,0,0,0,0,,,,,,,,,,,,,,,,,,,,,,,3326098112,0,0,0,0,0,0,0,0,0,,,,,,,,1,0,64,5,4,3,,,,,,,,,,,,,,,,,,,,,,,,,,,,,,,,,,,,,,,,,,,,,,,,,,,,,,,,,,,,,,,,,,,,,,,,,,,,,
3329098.11200000,,,,,,,,,,,,,,,3338098112,0,0,0,0,0,0,0,0,0,,,,,,,,,,,,,,,,,,,,,,,3336098112,0,0,0,0,0,0,0,0,0,3329098112,1014.00952148,0.0,1504,,,,1,0,64,5,4,3,0,0,0,4158,0,0,0,0,0,0,0,0,0,,,,,,,,,,,,,,,,,,,,,,,,,,,,,,,,,,,,,,,,,,,,,,,,,,,,,,,,,,,,,,,,
3339098.11200000,,,,,,,,,,,,,,,,,,,,,,,,,,,,,,,,,,,,,,,,,,,,,,,,,,,,,,,,,3339098112,1014.00952148,0.0,1504,,,,1,0,64,5,4,3,0,0,0,4159,0,0,0,0,0,0,0,0,0,,,,,,,,,,,,,,,,,,,,,,,,,,,,,,,,,,,,,,,,,,,,,,,,,,,,,,,,,,,,,,,,
3341098.11200000,,,,,,,,,,,,,,,3343098112,0,0,0,0,0,0,0,0,0,,,,,,,,,,,,,0.0316227786243,0.00128875242081,0.0,0.399659723043,-2.19417553415e-15,90.0,0.0316227786243,1,2,120,,,,,,,,,,,,,,,,,,,,,,,,,,,,,,,,,,,,,3341098112,0,13446,12882,9192,12945,7527,0,9210,0,0,3342098112,0,919,1344,1294,1288,0,0,0,0,,,,,,,,,,,,,,,,,,,,,,,,,,,,,,,,,,,,,,,,,,,
3344098.11200000,3344098112,-0.339872300625,0.346328645945,6.28318405151,-0.000415387679823,0.000415387679823,0.000142250108183,,,,,,,,3348098112,0,0,0,0,0,0,0,0,0,,,,,,,,,,,,,,,,,,,,,,,3346098112,0,0,0,0,0,0,0,0,0,,,,,,,,1,0,64,5,4,3,,,,,,,,,,,,,,,,,,,,,,,,,,,,,,,,,,,,,,,,,,,,,,,,,,,,,,,,,,,,,,,,,,,,,,,,,,,,,
3349098.11200000,,,,,,,,,,,,,,,3358098112,0,0,0,0,0,0,0,0,0,,,,,,,,,,,,,,,,,,,,,,,3356098112,0,0,0,0,0,0,0,0,0,3349098112,1014.00952148,0.0,1504,,,,1,0,64,5,4,3,0,0,0,4161,0,0,0,0,0,0,0,0,0,,,,,,,,,,,,,,,,,,,,,,,,,,,,,,,,,,,,,,,,,,,,,,,,,,,,,,,,,,,,,,,,
3359098.11200000,,,,,,,,,,,,,,,,,,,,,,,,,,,,,,,,,,,,,,,,,,,,,,,,,,,,,,,,,3359098112,1014.00952148,0.0,1504,,,,1,0,64,5,4,3,0,0,0,4158,0,0,0,0,0,0,0,0,0,,,,,,,,,,,,,,,,,,,,,,,,,,,,,,,,,,,,,,,,,,,,,,,,,,,,,,,,,,,,,,,,
3361098.11200000,,,,,,,,,,,,,,,3363098112,0,0,0,0,0,0,0,0,0,,,,,,,,,,,,,0.0316227786243,0.00128875242081,0.0,0.399659723043,-2.1963145041e-15,90.0,0.0316227786243,1,2,120,,,,,,,,,,,,,,,,,,,,,,,,,,,,,,,,,,,,,3361098112,0,13447,12882,9193,12947,7529,0,9210,0,0,3362098112,0,919,1344,1294,1288,0,0,0,0,,,,,,,,,,,,,,,,,,,,,,,,,,,,,,,,,,,,,,,,,,,
3364098.11200000,3364098112,-0.340708523989,0.347206503153,6.28318405151,-0.000415899907239,0.000415899907239,0.000142762335599,,,,,,,,3368098112,0,0,0,0,0,0,0,0,0,,,,,,,,,,,,,,,,,,,,,,,3366098112,0,0,0,0,0,0,0,0,0,,,,,,,,1,0,64,5,4,3,,,,,,,,,,,,,,,,,,,,,,,,,,,,,,,,,,,,,,,,,,,,,,,,,,,,,,,,,,,,,,,,,,,,,,,,,,,,,
3369098.11200000,,,,,,,,,,,,,,,3378098112,0,0,0,0,0,0,0,0,0,,,,,,,,,,,,,,,,,,,,,,,3376098112,0,0,0,0,0,0,0,0,0,3369098112,1014.00952148,0.0,1504,,,,1,0,64,5,4,3,0,0,0,4199,0,0,0,0,0,0,0,0,0,,,,,,,,,,,,,,,,,,,,,,,,,,,,,,,,,,,,,,,,,,,,,,,,,,,,,,,,,,,,,,,,
3379098.11200000,,,,,,,,,,,,,,,,,,,,,,,,,,,,,,,,,,,,,,,,,,,,,,,,,,,,,,,,,3379098112,1014.00952148,0.0,1504,,,,1,0,64,5,4,3,0,0,0,4158,0,0,0,0,0,0,0,0,0,,,,,,,,,,,,,,,,,,,,,,,,,,,,,,,,,,,,,,,,,,,,,,,,,,,,,,,,,,,,,,,,
3381098.11200000,,,,,,,,,,,,,,,3383098112,0,0,0,0,0,0,0,0,0,,,,,,,,,,,,,0.0316227786243,0.00128875242081,0.0,0.399659723043,-2.19306825033e-15,90.0,0.0316227786243,1,2,120,,,,,,,,,,,,,,,,,,,,,,,,,,,,,,,,,,,,,3381098112,0,13446,12881,9192,12945,7528,0,9210,0,0,3382098112,0,919,1344,1294,1288,0,0,0,0,,,,,,,,,,,,,,,,,,,,,,,,,,,,,,,,,,,,,,,,,,,
3384098.11200000,3384098112,-0.341544747353,0.348084509373,6.28318405151,-0.000416412134655,0.000416412134655,0.000143274563015,,,,,,,,3388098112,0,0,0,0,0,0,0,0,0,,,,,,,,,,,,,,,,,,,,,,,3386098112,0,0,0,0,0,0,0,0,0,,,,,,,,1,0,64,5,4,3,,,,,,,,,,,,,,,,,,,,,,,,,,,,,,,,,,,,,,,,,,,,,,,,,,,,,,,,,,,,,,,,,,,,,,,,,,,,,
3389098.11200000,,,,,,,,,,,,,,,3398098112,0,0,0,0,0,0,0,0,0,,,,,,,,,,,,,,,,,,,,,,,3396098112,0,0,0,0,0,0,0,0,0,3389098112,1014.00952148,0.0,1504,,,,1,0,64,5,4,3,0,0,0,4160,0,0,0,0,0,0,0,0,0,,,,,,,,,,,,,,,,,,,,,,,,,,,,,,,,,,,,,,,,,,,,,,,,,,,,,,,,,,,,,,,,
3399098.11200000,,,,,,,,,,,,,,,,,,,,,,,,,,,,,,,,,,,,,,,,,,,,,,,,,,,,,,,,,3399098112,1014.00952148,0.0,1504,,,,1,0,64,5,4,3,0,0,0,4153,0,0,0,0,0,0,0,0,0,,,,,,,,,,,,,,,,,,,,,,,,,,,,,,,,,,,,,,,,,,,,,,,,,,,,,,,,,,,,,,,,
3401098.11200000,,,,,,,,,,,,,,,3403098112,0,0,0,0,0,0,0,0,0,,,,,,,,,,,,,0.0316227786243,0.00128875242081,0.0,0.399659723043,-2.18588223456e-15,90.0,0.0316227786243,1,2,120,,,,,,,,,,,,,,,,,,,,,,,,,,,,,,,,,,,,,3401098112,0,13445,12882,9192,12945,7528,0,9210,0,0,3402098112,0,919,1344,1294,1288,0,0,0,0,,,,,,,,,,,,,,,,,,,,,,,,,,,,,,,,,,,,,,,,,,,
3404098.11200000,3404098112,-0.342381238937,0.348962634802,6.28318405151,-0.000416924362071,0.000416924362071,0.000143786790431,,,,,,,,3408098112,0,0,0,0,0,0,0,0,0,,,,,,,,,,,,,,,,,,,,,,,3406098112,0,0,0,0,0,0,0,0,0,,,,,,,,1,0,64,5,4,3,,,,,,,,,,,,,,,,,,,,,,,,,,,,,,,,,,,,,,,,,,,,,,,,,,,,,,,,,,,,,,,,,,,,,,,,,,,,,
3409098.11200000,,,,,,,,,,,,,,,3418098112,0,0,0,0,0,0,0,0,0,,,,,,,,,,,,,,,,,,,,,,,3416098112,0,0,0,0,0,0,0,0,0,3409098112,1014.00952148,0.0,1504,,,,1,0,64,5,4,3,0,0,0,4153,0,0,0,0,0,0,0,0,0,,,,,,,,,,,,,,,,,,,,,,,,,,,,,,,,,,,,,,,,,,,,,,,,,,,,,,,,,,,,,,,,
3419098.11200000,,,,,,,,,,,,,,,,,,,,,,,,,,,,,,,,,,,,,,,,,,,,,,,,,,,,,,,,,3419098112,1014.00952148,0.0,1504,,,,1,0,64,5,4,3,0,0,0,4158,0,0,0,0,0,0,0,0,0,,,,,,,,,,,,,,,,,,,,,,,,,,,,,,,,,,,,,,,,,,,,,,,,,,,,,,,,,,,,,,,,
3421098.11200000,,,,,,,,,,,,,,,3423098112,0,0,0,0,0,0,0,0,0,,,,,,,,,,,,,0.0316227786243,0.00128875242081,0.0,0.399659723043,-2.17932641131e-15,90.0,0.0316227786243,1,2,120,,,,,,,,,,,,,,,,,,,,,,,,,,,,,,,,,,,,,3421098112,0,13446,12882,9193,12945,7529,0,9210,0,0,3422098112,0,919,1344,1294,1288,0,0,0,0,,,,,,,,,,,,,,,,,,,,,,,,,,,,,,,,,,,,,,,,,,,
3424098.11200000,3424098112,-0.343217849731,0.349845379591,6.28318405151,-0.000417436589487,0.000417436589487,0.000144299017848,,,,,,,,3428098112,0,0,0,0,0,0,0,0,0,,,,,,,,,,,,,,,,,,,,,,,3426098112,0,0,0,0,0,0,0,0,0,,,,,,,,1,0,64,5,4,3,,,,,,,,,,,,,,,,,,,,,,,,,,,,,,,,,,,,,,,,,,,,,,,,,,,,,,,,,,,,,,,,,,,,,,,,,,,,,
3429098.11200000,,,,,,,,,,,,,,,3438098112,0,0,0,0,0,0,0,0,0,,,,,,,,,,,,,,,,,,,,,,,3436098112,0,0,0,0,0,0,0,0,0,3429098112,1014.00952148,0.0,1504,,,,1,0,64,5,4,3,0,0,0,4155,0,0,0,0,0,0,0,0,0,,,,,,,,,,,,,,,,,,,,,,,,,,,,,,,,,,,,,,,,,,,,,,,,,,,,,,,,,,,,,,,,
3439098.11200000,,,,,,,,,,,,,,,,,,,,,,,,,,,,,,,,,,,,,,,,,,,,,,,,,,,,,,,,,3439098112,1014.00952148,0.0,1504,,,,1,0,64,5,4,3,0,0,0,4155,0,0,0,0,0,0,0,0,0,,,,,,,,,,,,,,,,,,,,,,,,,,,,,,,,,,,,,,,,,,,,,,,,,,,,,,,,,,,,,,,,
3441098.11200000,,,,,,,,,,,,,,,3443098112,0,0,0,0,0,0,0,0,0,,,,,,,,,,,,,0.0316227786243,0.00128875242081,0.0,0.399659723043,-2.18006205942e-15,90.0,0.0316227786243,1,2,120,,,,,,,,,,,,,,,,,,,,,,,,,,,,,,,,,,,,,3441098112,0,13444,12879,9192,12944,7528,0,9210,0,0,3442098112,0,919,1344,1294,1288,0,0,0,0,,,,,,,,,,,,,,,,,,,,,,,,,,,,,,,,,,,,,,,,,,,
3444098.11200000,3444098112,-0.34405452013,0.350729733706,6.28318405151,-0.000417948816903,0.000417948816903,0.000144811245264,,,,,,,,3448098112,0,0,0,0,0,0,0,0,0,,,,,,,,,,,,,,,,,,,,,,,3446098112,0,0,0,0,0,0,0,0,0,,,,,,,,1,0,64,5,4,3,,,,,,,,,,,,,,,,,,,,,,,,,,,,,,,,,,,,,,,,,,,,,,,,,,,,,,,,,,,,,,,,,,,,,,,,,,,,,
3449098.11200000,,,,,,,,,,,,,,,3458098112,0,0,0,0,0,0,0,0,0,,,,,,,,,,,,,,,,,,,,,,,3456098112,0,0,0,0,0,0,0,0,0,3449098112,1014.00952148,0.0,1504,,,,1,0,64,5,4,3,0,0,0,4156,0,0,0,0,0,0,0,0,0,,,,,,,,,,,,,,,,,,,,,,,,,,,,,,,,,,,,,,,,,,,,,,,,,,,,,,,,,,,,,,,,
3459098.11200000,,,,,,,,,,,,,,,,,,,,,,,,,,,,,,,,,,,,,,,,,,,,,,,,,,,,,,,,,3459098112,1014.00952148,0.0,1504,,,,1,0,64,5,4,3,0,0,0,4159,0,0,0,0,0,0,0,0,0,,,,,,,,,,,,,,,,,,,,,,,,,,,,,,,,,,,,,,,,,,,,,,,,,,,,,,,,,,,,,,,,
3461098.11200000,,,,,,,,,,,,,,,3463098112,0,0,0,0,0,0,0,0,0,,,,,,,,,,,,,0.0316227786243,0.00128875242081,0.0,0.399659723043,-2.17584468238e-15,90.0,0.0316227786243,1,2,120,,,,,,,,,,,,,,,,,,,,,,,,,,,,,,,,,,,,,3461098112,0,13441,12880,9192,12945,7528,0,9210,0,0,3462098112,0,919,1344,1294,1288,0,0,0,0,,,,,,,,,,,,,,,,,,,,,,,,,,,,,,,,,,,,,,,,,,,
3464098.11200000,3464098112,-0.34489133954,0.351614207029,6.28318405151,-0.000418461044319,0.000418461044319,0.00014532347268,,,,,,,,3468098112,0,0,0,0,0,0,0,0,0,,,,,,,,,,,,,,,,,,,,,,,3466098112,0,0,0,0,0,0,0,0,0,,,,,,,,1,0,64,5,4,3,,,,,,,,,,,,,,,,,,,,,,,,,,,,,,,,,,,,,,,,,,,,,,,,,,,,,,,,,,,,,,,,,,,,,,,,,,,,,
3469098.11200000,,,,,,,,,,,,,,,3478098112,0,0,0,0,0,0,0,0,0,,,,,,,,,,,,,,,,,,,,,,,3476098112,0,0,0,0,0,0,0,0,0,3469098112,1014.00952148,0.0,1504,,,,1,0,64,5,4,3,0,0,0,4159,0,0,0,0,0,0,0,0,0,,,,,,,,,,,,,,,,,,,,,,,,,,,,,,,,,,,,,,,,,,,,,,,,,,,,,,,,,,,,,,,,
3479098.11200000,,,,,,,,,,,,,,,,,,,,,,,,,,,,,,,,,,,,,,,,,,,,,,,,,,,,,,,,,3479098112,1014.00952148,0.0,1504,,,,1,0,64,5,4,3,0,0,0,4154,0,0,0,0,0,0,0,0,0,,,,,,,,,,,,,,,,,,,,,,,,,,,,,,,,,,,,,,,,,,,,,,,,,,,,,,,,,,,,,,,,
3481098.11200000,,,,,,,,,,,,,,,3483098112,0,0,0,0,0,0,0,0,0,,,,,,,,,,,,,0.0316227786243,0.00128875242081,0.0,0.399659723043,-2.17354456441e-15,90.0,0.0316227786243,1,2,120,,,,,,,,,,,,,,,,,,,,,,,,,,,,,,,,,,,,,3481098112,0,13448,12882,9194,12946,7528,0,9210,0,0,3482098112,0,919,1344,1294,1288,0,0,0,0,,,,,,,,,,,,,,,,,,,,,,,,,,,,,,,,,,,,,,,,,,,
3484098.11200000,3484098112,-0.34572827816,0.35249876976,6.28318405151,-0.000418973271735,0.000418973271735,0.000145835700096,,,,,,,,3488098112,0,0,0,0,0,0,0,0,0,,,,,,,,,,,,,,,,,,,,,,,3486098112,0,0,0,0,0,0,0,0,0,,,,,,,,1,0,64,5,4,3,,,,,,,,,,,,,,,,,,,,,,,,,,,,,,,,,,,,,,,,,,,,,,,,,,,,,,,,,,,,,,,,,,,,,,,,,,,,,
3489098.11200000,,,,,,,,,,,,,,,3498098112,0,0,0,0,0,0,0,0,0,,,,,,,,,,,,,,,,,,,,,,,3496098112,0,0,0,0,0,0,0,0,0,3489098112,1014.00952148,0.0,1504,,,,1,0,64,5,4,3,0,0,0,4154,0,0,0,0,0,0,0,0,0,,,,,,,,,,,,,,,,,,,,,,,,,,,,,,,,,,,,,,,,,,,,,,,,,,,,,,,,,,,,,,,,
3499098.11200000,,,,,,,,,,,,,,,,,,,,,,,,,,,,,,,,,,,,,,,,,,,,,,,,,,,,,,,,,3499098112,1014.00952148,0.0,1504,,,,1,0,64,5,4,3,0,0,0,4162,0,0,0,0,0,0,0,0,0,,,,,,,,,,,,,,,,,,,,,,,,,,,,,,,,,,,,,,,,,,,,,,,,,,,,,,,,,,,,,,,,
3501098.11200000,,,,,,,,,,,,,,,3503098112,0,0,0,0,0,0,0,0,0,,,,,,,,,,,,,0.0316227786243,0.00128875242081,0.0,0.399659723043,-2.18985079568e-15,90.0,0.0316227786243,1,2,120,,,,,,,,,,,,,,,,,,,,,,,,,,,,,,,,,,,,,3501098112,0,13445,12879,9192,12944,7528,0,9210,0,0,3502098112,0,919,1344,1294,1288,0,0,0,0,,,,,,,,,,,,,,,,,,,,,,,,,,,,,,,,,,,,,,,,,,,
3504098.11200000,3504098112,-0.346566319466,0.353383481503,6.28318405151,-0.000419485499151,0.000419485499151,0.000146347927512,,,,,,,,3518098112,0,0,0,0,0,0,0,0,0,,,,,,,,,,,,,,,,,,,,,,,,,,,,,,,,,,,,,,,,,,,,,,,,,,,,,,,,,,,,,,,,,,,,,,,,,,,,,,,,,,,,,,,,,,,,,,,,,,,,,,,,,,,,,,,,,,,,,,,,,,
3519098.11200000,,,,,,,,,,,,,,,,,,,,,,,,,,,,,,,,,,,,,,,,,,,,,,,,,,,,,,,,,3519098112,1014.00952148,0.0,1504,,,,1,0,64,5,4,3,0,0,0,4158,0,0,0,0,0,0,0,0,0,,,,,,,,,,,,,,,,,,,,,,,,,,,,,,,,,,,,,,,,,,,,,,,,,,,,,,,,,,,,,,,,
3521098.11200000,,,,,,,,,,,,,,,3523098112,0,0,0,0,0,0,0,0,0,,,,,,,,,,,,,0.0316227786243,0.00128875242081,0.0,0.399659723043,-2.18821835143e-15,90.0,0.0316227786243,1,2,120,,,,,,,,,,,,,,,,,,,,,,,,,,,,,,,,,,,,,3521098112,0,13447,12881,9191,12945,7529,0,9210,0,0,3522098112,0,919,1344,1294,1288,0,0,0,0,,,,,,,,,,,,,,,,,,,,,,,,,,,,,,,,,,,,,,,,,,,
3524098.11200000,3524098112,-0.347409486771,0.35426825285,6.28318405151,-0.000419997726567,0.000419997726567,0.000146860154928,,,,,,,,3528098112,0,0,0,0,0,0,0,0,0,,,,,,,,,,,,,,,,,,,,,,,3526098112,0,0,0,0,0,0,0,0,0,,,,,,,,1,0,64,5,4,3,,,,,,,,,,,,,,,,,,,,,,,,,,,,,,,,,,,,,,,,,,,,,,,,,,,,,,,,,,,,,,,,,,,,,,,,,,,,,
3529098.11200000,,,,,,,,,,,,,,,3538098112,0,0,0,0,0,0,0,0,0,,,,,,,,,,,,,,,,,,,,,,,3536098112,0,0,0,0,0,0,0,0,0,3529098112,1014.00952148,0.0,1504,,,,1,0,64,5,4,3,0,0,0,4157,0,0,0,0,0,0,0,0,0,,,,,,,,,,,,,,,,,,,,,,,,,,,,,,,,,,,,,,,,,,,,,,,,,,,,,,,,,,,,,,,,
3539098.11200000,,,,,,,,,,,,,,,,,,,,,,,,,,,,,,,,,,,,,,,,,,,,,,,,,,,,,,,,,3539098112,1014.00952148,0.0,1504,,,,1,0,64,5,4,3,0,0,0,4151,0,0,0,0,0,0,0,0,0,,,,,,,,,,,,,,,,,,,,,,,,,,,,,,,,,,,,,,,,,,,,,,,,,,,,,,,,,,,,,,,,
3541098.11200000,,,,,,,,,,,,,,,3543098112,0,0,0,0,0,0,0,0,0,,,,,,,,,,,,,0.0316227786243,0.00128875242081,0.0,0.399659723043,-2.19323871571e-15,90.0,0.0316227786243,1,2,120,,,,,,,,,,,,,,,,,,,,,,,,,,,,,,,,,,,,,3541098112,0,13445,12881,9191,12944,7528,0,9210,0,0,3542098112,0,919,1344,1294,1288,0,0,0,0,,,,,,,,,,,,,,,,,,,,,,,,,,,,,,,,,,,,,,,,,,,
3544098.11200000,3544098112,-0.348256677389,0.355160355568,6.28318357468,-0.000420509953983,0.000420509953983,0.000147372382344,,,,,,,,3548098112,0,0,0,0,0,0,0,0,0,,,,,,,,,,,,,,,,,,,,,,,3546098112,0,0,0,0,0,0,0,0,0,,,,,,,,1,0,64,5,4,3,,,,,,,,,,,,,,,,,,,,,,,,,,,,,,,,,,,,,,,,,,,,,,,,,,,,,,,,,,,,,,,,,,,,,,,,,,,,,
3549098.11200000,,,,,,,,,,,,,,,3558098112,0,0,0,0,0,0,0,0,0,,,,,,,,,,,,,,,,,,,,,,,3556098112,0,0,0,0,0,0,0,0,0,3549098112,1014.00952148,0.0,1504,,,,1,0,64,5,4,3,0,0,0,4158,0,0,0,0,0,0,0,0,0,,,,,,,,,,,,,,,,,,,,,,,,,,,,,,,,,,,,,,,,,,,,,,,,,,,,,,,,,,,,,,,,
3559098.11200000,,,,,,,,,,,,,,,,,,,,,,,,,,,,,,,,,,,,,,,,,,,,,,,,,,,,,,,,,3559098112,1014.00952148,0.0,1504,,,,1,0,64,5,4,3,0,0,0,4159,0,0,0,0,0,0,0,0,0,,,,,,,,,,,,,,,,,,,,,,,,,,,,,,,,,,,,,,,,,,,,,,,,,,,,,,,,,,,,,,,,
3561098.11200000,,,,,,,,,,,,,,,3563098112,0,0,0,0,0,0,0,0,0,,,,,,,,,,,,,0.0316227786243,0.00128875242081,0.0,0.399659723043,-2.19106078224e-15,90.0,0.0316227786243,1,2,120,,,,,,,,,,,,,,,,,,,,,,,,,,,,,,,,,,,,,3561098112,0,13447,12882,9193,12945,7528,0,9210,0,0,3562098112,0,919,1344,1294,1288,0,0,0,0,,,,,,,,,,,,,,,,,,,,,,,,,,,,,,,,,,,,,,,,,,,
3564098.11200000,3564098112,-0.349104225636,0.356055676937,6.28318357468,-0.000421022181399,0.000421022181399,0.00014788460976,,,,,,,,3568098112,0,0,0,0,0,0,0,0,0,,,,,,,,,,,,,,,,,,,,,,,3566098112,0,0,0,0,0,0,0,0,0,,,,,,,,1,0,64,5,4,3,,,,,,,,,,,,,,,,,,,,,,,,,,,,,,,,,,,,,,,,,,,,,,,,,,,,,,,,,,,,,,,,,,,,,,,,,,,,,
3569098.11200000,,,,,,,,,,,,,,,3578098112,0,0,0,0,0,0,0,0,0,,,,,,,,,,,,,,,,,,,,,,,3576098112,0,0,0,0,0,0,0,0,0,3569098112,1014.00952148,0.0,1504,,,,1,0,64,5,4,3,0,0,0,4156,0,0,0,0,0,0,0,0,0,,,,,,,,,,,,,,,,,,,,,,,,,,,,,,,,,,,,,,,,,,,,,,,,,,,,,,,,,,,,,,,,
3579098.11200000,,,,,,,,,,,,,,,,,,,,,,,,,,,,,,,,,,,,,,,,,,,,,,,,,,,,,,,,,3579098112,1014.00952148,0.0,1504,,,,1,0,64,5,4,3,0,0,0,4160,0,0,0,0,0,0,0,0,0,,,,,,,,,,,,,,,,,,,,,,,,,,,,,,,,,,,,,,,,,,,,,,,,,,,,,,,,,,,,,,,,
3581098.11200000,,,,,,,,,,,,,,,3583098112,0,0,0,0,0,0,0,0,0,,,,,,,,,,,,,0.0316227786243,0.00128875242081,0.0,0.399659723043,-2.18670322125e-15,90.0,0.0316227786243,1,2,120,,,,,,,,,,,,,,,,,,,,,,,,,,,,,,,,,,,,,3581098112,0,13447,12882,9192,12946,7529,0,9210,0,0,3582098112,0,919,1344,1294,1288,0,0,0,0,,,,,,,,,,,,,,,,,,,,,,,,,,,,,,,,,,,,,,,,,,,
3584098.11200000,3584098112,-0.349952042103,0.35695117712,6.28318357468,-0.000421534408815,0.000421534408815,0.000148396837176,,,,,,,,3588098112,0,0,0,0,0,0,0,0,0,,,,,,,,,,,,,,,,,,,,,,,3586098112,0,0,0,0,0,0,0,0,0,,,,,,,,1,0,64,5,4,3,,,,,,,,,,,,,,,,,,,,,,,,,,,,,,,,,,,,,,,,,,,,,,,,,,,,,,,,,,,,,,,,,,,,,,,,,,,,,
3589098.11200000,,,,,,,,,,,,,,,3598098112,0,0,0,0,0,0,0,0,0,,,,,,,,,,,,,,,,,,,,,,,3596098112,0,0,0,0,0,0,0,0,0,3589098112,1014.00952148,0.0,1504,,,,1,0,64,5,4,3,0,0,0,4158,0,0,0,0,0,0,0,0,0,,,,,,,,,,,,,,,,,,,,,,,,,,,,,,,,,,,,,,,,,,,,,,,,,,,,,,,,,,,,,,,,
3599098.11200000,,,,,,,,,,,,,,,,,,,,,,,,,,,,,,,,,,,,,,,,,,,,,,,,,,,,,,,,,3599098112,1014.00952148,0.0,1504,,,,1,0,64,5,4,3,0,0,0,4153,0,0,0,0,0,0,0,0,0,,,,,,,,,,,,,,,,,,,,,,,,,,,,,,,,,,,,,,,,,,,,,,,,,,,,,,,,,,,,,,,,
3601098.11200000,,,,,,,,,,,,,,,3603098112,0,0,0,0,0,0,0,0,0,,,,,,,,,,,,,0.0316227786243,0.00128875242081,0.0,0.399659723043,-2.1785831399e-15,90.0,0.0316227786243,1,2,120,,,,,,,,,,,,,,,,,,,,,,,,,,,,,,,,,,,,,3601098112,0,13445,12880,9192,12944,7528,0,9210,0,0,3602098112,0,919,1344,1294,1288,0,0,0,0,,,,,,,,,,,,,,,,,,,,,,,,,,,,,,,,,,,,,,,,,,,
3604098.11200000,3604098112,-0.350800007582,0.357846796513,6.28318357468,-0.000422046636231,0.000422046636231,0.000148909064592,,,,,,,,3608098112,0,0,0,0,0,0,0,0,0,,,,,,,,,,,,,,,,,,,,,,,3606098112,0,0,0,0,0,0,0,0,0,,,,,,,,1,0,64,5,4,3,,,,,,,,,,,,,,,,,,,,,,,,,,,,,,,,,,,,,,,,,,,,,,,,,,,,,,,,,,,,,,,,,,,,,,,,,,,,,
3609098.11200000,,,,,,,,,,,,,,,3618098112,0,0,0,0,0,0,0,0,0,,,,,,,,,,,,,,,,,,,,,,,3616098112,0,0,0,0,0,0,0,0,0,3609098112,1014.00952148,0.0,1504,,,,1,0,64,5,4,3,0,0,0,4158,0,0,0,0,0,0,0,0,0,,,,,,,,,,,,,,,,,,,,,,,,,,,,,,,,,,,,,,,,,,,,,,,,,,,,,,,,,,,,,,,,
3619098.11200000,,,,,,,,,,,,,,,,,,,,,,,,,,,,,,,,,,,,,,,,,,,,,,,,,,,,,,,,,3619098112,1014.00952148,0.0,1504,,,,1,0,64,5,4,3,0,0,0,4160,0,0,0,0,0,0,0,0,0,,,,,,,,,,,,,,,,,,,,,,,,,,,,,,,,,,,,,,,,,,,,,,,,,,,,,,,,,,,,,,,,
3621098.11200000,,,,,,,,,,,,,,,3623098112,0,0,0,0,0,0,0,0,0,,,,,,,,,,,,,0.0316227786243,0.00128875242081,0.0,0.399659723043,-2.18090231611e-15,90.0,0.0316227786243,1,2,120,,,,,,,,,,,,,,,,,,,,,,,,,,,,,,,,,,,,,3621098112,0,13446,12882,9192,12945,7529,0,9210,0,0,3622098112,0,919,1344,1294,1288,0,0,0,0,,,,,,,,,,,,,,,,,,,,,,,,,,,,,,,,,,,,,,,,,,,
3624098.11200000,3624098112,-0.351647973061,0.358742505312,6.28318357468,-0.000422558863647,0.000422558863647,0.000149421292008,,,,,,,,3628098112,0,0,0,0,0,0,0,0,0,,,,,,,,,,,,,,,,,,,,,,,3626098112,0,0,0,0,0,0,0,0,0,,,,,,,,1,0,64,5,4,3,,,,,,,,,,,,,,,,,,,,,,,,,,,,,,,,,,,,,,,,,,,,,,,,,,,,,,,,,,,,,,,,,,,,,,,,,,,,,
3629098.11200000,,,,,,,,,,,,,,,3638098112,0,0,0,0,0,0,0,0,0,,,,,,,,,,,,,,,,,,,,,,,3636098112,0,0,0,0,0,0,0,0,0,3629098112,1014.00952148,0.0,1504,,,,1,0,64,5,4,3,0,0,0,4158,0,0,0,0,0,0,0,0,0,,,,,,,,,,,,,,,,,,,,,,,,,,,,,,,,,,,,,,,,,,,,,,,,,,,,,,,,,,,,,,,,
3639098.11200000,,,,,,,,,,,,,,,,,,,,,,,,,,,,,,,,,,,,,,,,,,,,,,,,,,,,,,,,,3639098112,1014.00952148,0.0,1504,,,,1,0,64,5,4,3,0,0,0,4155,0,0,0,0,0,0,0,0,0,,,,,,,,,,,,,,,,,,,,,,,,,,,,,,,,,,,,,,,,,,,,,,,,,,,,,,,,,,,,,,,,
3641098.11200000,,,,,,,,,,,,,,,3643098112,0,0,0,0,0,0,0,0,0,,,,,,,,,,,,,0.0316227786243,0.00128875242081,0.0,0.399659723043,-2.17748665575e-15,90.0,0.0316227786243,1,2,120,,,,,,,,,,,,,,,,,,,,,,,,,,,,,,,,,,,,,3641098112,0,13445,12881,9192,12945,7529,0,9210,0,0,3642098112,0,919,1344,1294,1288,0,0,0,0,,,,,,,,,,,,,,,,,,,,,,,,,,,,,,,,,,,,,,,,,,,
3644098.11200000,3644098112,-0.352496087551,0.359638422728,6.28318357468,-0.000423071091063,0.000423071091063,0.000149933519424,,,,,,,,3648098112,0,0,0,0,0,0,0,0,0,,,,,,,,,,,,,,,,,,,,,,,3646098112,0,0,0,0,0,0,0,0,0,,,,,,,,1,0,64,5,4,3,,,,,,,,,,,,,,,,,,,,,,,,,,,,,,,,,,,,,,,,,,,,,,,,,,,,,,,,,,,,,,,,,,,,,,,,,,,,,
3649098.11200000,,,,,,,,,,,,,,,3658098112,0,0,0,0,0,0,0,0,0,,,,,,,,,,,,,,,,,,,,,,,3656098112,0,0,0,0,0,0,0,0,0,3649098112,1014.00952148,0.0,1504,,,,1,0,64,5,4,3,0,0,0,4185,0,0,0,0,0,0,0,0,0,,,,,,,,,,,,,,,,,,,,,,,,,,,,,,,,,,,,,,,,,,,,,,,,,,,,,,,,,,,,,,,,
3659098.11200000,,,,,,,,,,,,,,,,,,,,,,,,,,,,,,,,,,,,,,,,,,,,,,,,,,,,,,,,,3659098112,1014.00952148,0.0,1504,,,,1,0,64,5,4,3,0,0,0,4150,0,0,0,0,0,0,0,0,0,,,,,,,,,,,,,,,,,,,,,,,,,,,,,,,,,,,,,,,,,,,,,,,,,,,,,,,,,,,,,,,,
3661098.11200000,,,,,,,,,,,,,,,3663098112,0,0,0,0,0,0,0,0,0,,,,,,,,,,,,,0.0316227786243,0.00128875242081,0.0,0.399659723043,-2.18873991197e-15,90.0,0.0316227786243,1,2,120,,,,,,,,,,,,,,,,,,,,,,,,,,,,,,,,,,,,,3661098112,0,13446,12881,9193,12946,7529,0,9210,0,0,3662098112,0,919,1344,1294,1288,0,0,0,0,,,,,,,,,,,,,,,,,,,,,,,,,,,,,,,,,,,,,,,,,,,
3664098.11200000,3664098112,-0.353346884251,0.360538005829,6.28318357468,-0.000423583318479,0.000423583318479,0.00015044574684,,,,,,,,3668098112,0,0,0,0,0,0,0,0,0,,,,,,,,,,,,,,,,,,,,,,,3666098112,0,0,0,0,0,0,0,0,0,,,,,,,,1,0,64,5,4,3,,,,,,,,,,,,,,,,,,,,,,,,,,,,,,,,,,,,,,,,,,,,,,,,,,,,,,,,,,,,,,,,,,,,,,,,,,,,,
3669098.11200000,,,,,,,,,,,,,,,3678098112,0,0,0,0,0,0,0,0,0,,,,,,,,,,,,,,,,,,,,,,,3676098112,0,0,0,0,0,0,0,0,0,3669098112,1014.00952148,0.0,1504,,,,1,0,64,5,4,3,0,0,0,4160,0,0,0,0,0,0,0,0,0,,,,,,,,,,,,,,,,,,,,,,,,,,,,,,,,,,,,,,,,,,,,,,,,,,,,,,,,,,,,,,,,
3679098.11200000,,,,,,,,,,,,,,,,,,,,,,,,,,,,,,,,,,,,,,,,,,,,,,,,,,,,,,,,,3679098112,1014.00952148,0.0,1504,,,,1,0,64,5,4,3,0,0,0,4153,0,0,0,0,0,0,0,0,0,,,,,,,,,,,,,,,,,,,,,,,,,,,,,,,,,,,,,,,,,,,,,,,,,,,,,,,,,,,,,,,,
3681098.11200000,,,,,,,,,,,,,,,3683098112,0,0,0,0,0,0,0,0,0,,,,,,,,,,,,,0.0316227786243,0.00128875242081,0.0,0.399659723043,-2.18355437627e-15,90.0,0.0316227786243,1,2,120,,,,,,,,,,,,,,,,,,,,,,,,,,,,,,,,,,,,,3681098112,0,13446,12883,9194,12945,7529,0,9210,0,0,3682098112,0,919,1344,1294,1288,0,0,0,0,,,,,,,,,,,,,,,,,,,,,,,,,,,,,,,,,,,,,,,,,,,
3684098.11200000,3684098112,-0.354201257229,0.361440122128,6.28318357468,-0.000424095545895,0.000424095545895,0.000150957974256,,,,,,,,3688098112,0,0,0,0,0,0,0,0,0,,,,,,,,,,,,,,,,,,,,,,,3686098112,0,0,0,0,0,0,0,0,0,,,,,,,,1,0,64,5,4,3,,,,,,,,,,,,,,,,,,,,,,,,,,,,,,,,,,,,,,,,,,,,,,,,,,,,,,,,,,,,,,,,,,,,,,,,,,,,,
3689098.11200000,,,,,,,,,,,,,,,3698098112,0,0,0,0,0,0,0,0,0,,,,,,,,,,,,,,,,,,,,,,,3696098112,0,0,0,0,0,0,0,0,0,3689098112,1014.00952148,0.0,1504,,,,1,0,64,5,4,3,0,0,0,4155,0,0,0,0,0,0,0,0,0,,,,,,,,,,,,,,,,,,,,,,,,,,,,,,,,,,,,,,,,,,,,,,,,,,,,,,,,,,,,,,,,
3699098.11200000,,,,,,,,,,,,,,,,,,,,,,,,,,,,,,,,,,,,,,,,,,,,,,,,,,,,,,,,,3699098112,1014.00952148,0.0,1504,,,,1,0,64,5,4,3,0,0,0,4156,0,0,0,0,0,0,0,0,0,,,,,,,,,,,,,,,,,,,,,,,,,,,,,,,,,,,,,,,,,,,,,,,,,,,,,,,,,,,,,,,,
3701098.11200000,,,,,,,,,,,,,,,3703098112,0,0,0,0,0,0,0,0,0,,,,,,,,,,,,,0.0316227786243,0.00128875242081,0.0,0.399659723043,-2.18379387483e-15,90.0,0.0316227786243,1,2,120,,,,,,,,,,,,,,,,,,,,,,,,,,,,,,,,,,,,,3701098112,0,13446,12881,9193,12946,7529,0,9210,0,0,3702098112,0,919,1344,1294,1288,0,0,0,0,,,,,,,,,,,,,,,,,,,,,,,,,,,,,,,,,,,,,,,,,,,
3704098.11200000,3704098112,-0.355055868626,0.362342298031,6.28318357468,-0.000424607773311,0.000424607773311,0.000151470201672,,,,,,,,3708098112,0,0,0,0,0,0,0,0,0,,,,,,,,,,,,,,,,,,,,,,,3706098112,0,0,0,0,0,0,0,0,0,,,,,,,,1,0,64,5,4,3,,,,,,,,,,,,,,,,,,,,,,,,,,,,,,,,,,,,,,,,,,,,,,,,,,,,,,,,,,,,,,,,,,,,,,,,,,,,,
3709098.11200000,,,,,,,,,,,,,,,3718098112,0,0,0,0,0,0,0,0,0,,,,,,,,,,,,,,,,,,,,,,,3716098112,0,0,0,0,0,0,0,0,0,3709098112,1014.00952148,0.0,1504,,,,1,0,64,5,4,3,0,0,0,4154,0,0,0,0,0,0,0,0,0,,,,,,,,,,,,,,,,,,,,,,,,,,,,,,,,,,,,,,,,,,,,,,,,,,,,,,,,,,,,,,,,
3719098.11200000,,,,,,,,,,,,,,,,,,,,,,,,,,,,,,,,,,,,,,,,,,,,,,,,,,,,,,,,,3719098112,1014.00952148,0.0,1504,,,,1,0,64,5,4,3,0,0,0,4150,0,0,0,0,0,0,0,0,0,,,,,,,,,,,,,,,,,,,,,,,,,,,,,,,,,,,,,,,,,,,,,,,,,,,,,,,,,,,,,,,,
3721098.11200000,,,,,,,,,,,,,,,3723098112,0,0,0,0,0,0,0,0,0,,,,,,,,,,,,,0.0316227786243,0.00128875242081,0.0,0.399659723043,-2.17824602079e-15,90.0,0.0316227786243,1,2,120,,,,,,,,,,,,,,,,,,,,,,,,,,,,,,,,,,,,,3721098112,0,13447,12881,9192,12946,7529,0,9210,0,0,3722098112,0,919,1344,1294,1288,0,0,0,0,,,,,,,,,,,,,,,,,,,,,,,,,,,,,,,,,,,,,,,,,,,
3724098.11200000,3724098112,-0.355910599232,0.363244742155,6.28318357468,-0.000425120000727,0.000425120000727,0.000151982429088,,,,,,,,3728098112,0,0,0,0,0,0,0,0,0,,,,,,,,,,,,,,,,,,,,,,,3726098112,0,0,0,0,0,0,0,0,0,,,,,,,,1,0,64,5,4,3,,,,,,,,,,,,,,,,,,,,,,,,,,,,,,,,,,,,,,,,,,,,,,,,,,,,,,,,,,,,,,,,,,,,,,,,,,,,,
3729098.11200000,,,,,,,,,,,,,,,3738098112,0,0,0,0,0,0,0,0,0,,,,,,,,,,,,,,,,,,,,,,,3736098112,0,0,0,0,0,0,0,0,0,3729098112,1014.00952148,0.0,1504,,,,1,0,64,5,4,3,0,0,0,4157,0,0,0,0,0,0,0,0,0,,,,,,,,,,,,,,,,,,,,,,,,,,,,,,,,,,,,,,,,,,,,,,,,,,,,,,,,,,,,,,,,
3739098.11200000,,,,,,,,,,,,,,,,,,,,,,,,,,,,,,,,,,,,,,,,,,,,,,,,,,,,,,,,,3739098112,1014.00952148,0.0,1504,,,,1,0,64,5,4,3,0,0,0,4159,0,0,0,0,0,0,0,0,0,,,,,,,,,,,,,,,,,,,,,,,,,,,,,,,,,,,,,,,,,,,,,,,,,,,,,,,,,,,,,,,,
3741098.11200000,,,,,,,,,,,,,,,3743098112,0,0,0,0,0,0,0,0,0,,,,,,,,,,,,,0.0316227786243,0.00128875242081,0.0,0.399659723043,-2.17733778971e-15,90.0,0.0316227786243,1,2,120,,,,,,,,,,,,,,,,,,,,,,,,,,,,,,,,,,,,,3741098112,0,13445,12879,9192,12945,7528,0,9210,0,0,3742098112,0,919,1344,1294,1288,0,0,0,0,,,,,,,,,,,,,,,,,,,,,,,,,,,,,,,,,,,,,,,,,,,
3744098.11200000,3744098112,-0.356765508652,0.364147305489,6.28318357468,-0.000425632228144,0.000425632228144,0.000152494656504,,,,,,,,3748098112,0,0,0,0,0,0,0,0,0,,,,,,,,,,,,,,,,,,,,,,,3746098112,0,0,0,0,0,0,0,0,0,,,,,,,,1,0,64,5,4,3,,,,,,,,,,,,,,,,,,,,,,,,,,,,,,,,,,,,,,,,,,,,,,,,,,,,,,,,,,,,,,,,,,,,,,,,,,,,,
3749098.11200000,,,,,,,,,,,,,,,3758098112,0,0,0,0,0,0,0,0,0,,,,,,,,,,,,,,,,,,,,,,,3756098112,0,0,0,0,0,0,0,0,0,3749098112,1014.00952148,0.0,1504,,,,1,0,64,5,4,3,0,0,0,4156,0,0,0,0,0,0,0,0,0,,,,,,,,,,,,,,,,,,,,,,,,,,,,,,,,,,,,,,,,,,,,,,,,,,,,,,,,,,,,,,,,
3759098.11200000,,,,,,,,,,,,,,,,,,,,,,,,,,,,,,,,,,,,,,,,,,,,,,,,,,,,,,,,,3759098112,1014.00952148,0.0,1504,,,,1,0,64,5,4,3,0,0,0,4156,0,0,0,0,0,0,0,0,0,,,,,,,,,,,,,,,,,,,,,,,,,,,,,,,,,,,,,,,,,,,,,,,,,,,,,,,,,,,,,,,,
3761098.11200000,,,,,,,,,,,,,,,3763098112,0,0,0,0,0,0,0,0,0,,,,,,,,,,,,,0.0316227786243,0.00128875242081,0.0,0.399659723043,-2.17241419894e-15,90.0,0.0316227786243,1,2,120,,,,,,,,,,,,,,,,,,,,,,,,,,,,,,,,,,,,,3761098112,0,13446,12883,9192,12946,7529,0,9210,0,0,3762098112,0,919,1344,1294,1288,0,0,0,0,,,,,,,,,,,,,,,,,,,,,,,,,,,,,,,,,,,,,,,,,,,
3764098.11200000,3764098112,-0.357620537281,0.365049958229,6.28318357468,-0.00042614445556,0.00042614445556,0.00015300688392,,,,,,,,3768098112,0,0,0,0,0,0,0,0,0,,,,,,,,,,,,,,,,,,,,,,,3766098112,0,0,0,0,0,0,0,0,0,,,,,,,,1,0,64,5,4,3,,,,,,,,,,,,,,,,,,,,,,,,,,,,,,,,,,,,,,,,,,,,,,,,,,,,,,,,,,,,,,,,,,,,,,,,,,,,,
3769098.11200000,,,,,,,,,,,,,,,3778098112,0,0,0,0,0,0,0,0,0,,,,,,,,,,,,,,,,,,,,,,,3776098112,0,0,0,0,0,0,0,0,0,3769098112,1014.00952148,0.0,1504,,,,1,0,64,5,4,3,0,0,0,4152,0,0,0,0,0,0,0,0,0,,,,,,,,,,,,,,,,,,,,,,,,,,,,,,,,,,,,,,,,,,,,,,,,,,,,,,,,,,,,,,,,
3779098.11200000,,,,,,,,,,,,,,,,,,,,,,,,,,,,,,,,,,,,,,,,,,,,,,,,,,,,,,,,,3779098112,1014.00952148,0.0,1504,,,,1,0,64,5,4,3,0,0,0,4159,0,0,0,0,0,0,0,0,0,,,,,,,,,,,,,,,,,,,,,,,,,,,,,,,,,,,,,,,,,,,,,,,,,,,,,,,,,,,,,,,,
3781098.11200000,,,,,,,,,,,,,,,3783098112,0,0,0,0,0,0,0,0,0,,,,,,,,,,,,,0.0316227786243,0.00128875242081,0.0,0.399659723043,-2.16755477092e-15,90.0,0.0316227786243,1,2,120,,,,,,,,,,,,,,,,,,,,,,,,,,,,,,,,,,,,,3781098112,0,13444,12881,9193,12943,7528,0,9210,0,0,3782098112,0,919,1344,1294,1288,0,0,0,0,,,,,,,,,,,,,,,,,,,,,,,,,,,,,,,,,,,,,,,,,,,
3784098.11200000,3784098112,-0.35847568512,0.365955263376,6.28318357468,-0.000426656682976,0.000426656682976,0.000153519111336,,,,,,,,3788098112,0,0,0,0,0,0,0,0,0,,,,,,,,,,,,,,,,,,,,,,,3786098112,0,0,0,0,0,0,0,0,0,,,,,,,,1,0,64,5,4,3,,,,,,,,,,,,,,,,,,,,,,,,,,,,,,,,,,,,,,,,,,,,,,,,,,,,,,,,,,,,,,,,,,,,,,,,,,,,,
3789098.11200000,,,,,,,,,,,,,,,3798098112,0,0,0,0,0,0,0,0,0,,,,,,,,,,,,,,,,,,,,,,,3796098112,0,0,0,0,0,0,0,0,0,3789098112,1014.00952148,0.0,1504,,,,1,0,64,5,4,3,0,0,0,4150,0,0,0,0,0,0,0,0,0,,,,,,,,,,,,,,,,,,,,,,,,,,,,,,,,,,,,,,,,,,,,,,,,,,,,,,,,,,,,,,,,
3799098.11200000,,,,,,,,,,,,,,,,,,,,,,,,,,,,,,,,,,,,,,,,,,,,,,,,,,,,,,,,,3799098112,1014.00952148,0.0,1504,,,,1,0,64,5,4,3,0,0,0,4155,0,0,0,0,0,0,0,0,0,,,,,,,,,,,,,,,,,,,,,,,,,,,,,,,,,,,,,,,,,,,,,,,,,,,,,,,,,,,,,,,,
3801098.11200000,,,,,,,,,,,,,,,3803098112,0,0,0,0,0,0,0,0,0,,,,,,,,,,,,,0.0316227786243,0.00128875242081,0.0,0.399659723043,-2.1607579668e-15,90.0,0.0316227786243,1,2,120,,,,,,,,,,,,,,,,,,,,,,,,,,,,,,,,,,,,,3801098112,0,13440,12881,9192,12945,7528,0,9210,0,0,3802098112,0,919,1344,1294,1288,0,0,0,0,,,,,,,,,,,,,,,,,,,,,,,,,,,,,,,,,,,,,,,,,,,
3804098.11200000,3804098112,-0.35933098197,0.366864204407,6.28318357468,-0.000427168910392,0.000427168910392,0.000154031338752,,,,,,,,3808098112,0,0,0,0,0,0,0,0,0,,,,,,,,,,,,,,,,,,,,,,,3806098112,0,0,0,0,0,0,0,0,0,,,,,,,,1,0,64,5,4,3,,,,,,,,,,,,,,,,,,,,,,,,,,,,,,,,,,,,,,,,,,,,,,,,,,,,,,,,,,,,,,,,,,,,,,,,,,,,,
3809098.11200000,,,,,,,,,,,,,,,3818098112,0,0,0,0,0,0,0,0,0,,,,,,,,,,,,,,,,,,,,,,,3816098112,0,0,0,0,0,0,0,0,0,3809098112,1014.00952148,0.0,1504,,,,1,0,64,5,4,3,0,0,0,4152,0,0,0,0,0,0,0,0,0,,,,,,,,,,,,,,,,,,,,,,,,,,,,,,,,,,,,,,,,,,,,,,,,,,,,,,,,,,,,,,,,
3819098.11200000,,,,,,,,,,,,,,,,,,,,,,,,,,,,,,,,,,,,,,,,,,,,,,,,,,,,,,,,,3819098112,1014.00952148,0.0,1504,,,,1,0,64,5,4,3,0,0,0,4154,0,0,0,0,0,0,0,0,0,,,,,,,,,,,,,,,,,,,,,,,,,,,,,,,,,,,,,,,,,,,,,,,,,,,,,,,,,,,,,,,,
3821098.11200000,,,,,,,,,,,,,,,3823098112,0,0,0,0,0,0,0,0,0,,,,,,,,,,,,,0.0316227786243,0.00128875242081,0.0,0.399659723043,-2.17580169546e-15,90.0,0.0316227786243,1,2,120,,,,,,,,,,,,,,,,,,,,,,,,,,,,,,,,,,,,,3821098112,0,13445,12879,9192,12944,7527,0,9210,0,0,3822098112,0,919,1344,1294,1287,0,0,0,0,,,,,,,,,,,,,,,,,,,,,,,,,,,,,,,,,,,,,,,,,,,
3824098.11200000,3824098112,-0.360188692808,0.367773234844,6.28318309784,-0.000427681137808,0.000427681137808,0.000154543566168,,,,,,,,3828098112,0,0,0,0,0,0,0,0,0,,,,,,,,,,,,,,,,,,,,,,,3826098112,0,0,0,0,0,0,0,0,0,,,,,,,,1,0,64,5,4,3,,,,,,,,,,,,,,,,,,,,,,,,,,,,,,,,,,,,,,,,,,,,,,,,,,,,,,,,,,,,,,,,,,,,,,,,,,,,,
3829098.11200000,,,,,,,,,,,,,,,3838098112,0,0,0,0,0,0,0,0,0,,,,,,,,,,,,,,,,,,,,,,,3836098112,0,0,0,0,0,0,0,0,0,3829098112,1014.00952148,0.0,1504,,,,1,0,64,5,4,3,0,0,0,4156,0,0,0,0,0,0,0,0,0,,,,,,,,,,,,,,,,,,,,,,,,,,,,,,,,,,,,,,,,,,,,,,,,,,,,,,,,,,,,,,,,
3839098.11200000,,,,,,,,,,,,,,,,,,,,,,,,,,,,,,,,,,,,,,,,,,,,,,,,,,,,,,,,,3839098112,1014.00952148,0.0,1504,,,,1,0,64,5,4,3,0,0,0,4156,0,0,0,0,0,0,0,0,0,,,,,,,,,,,,,,,,,,,,,,,,,,,,,,,,,,,,,,,,,,,,,,,,,,,,,,,,,,,,,,,,
3841098.11200000,,,,,,,,,,,,,,,3843098112,0,0,0,0,0,0,0,0,0,,,,,,,,,,,,,0.0316227786243,0.00128875242081,0.0,0.399659723043,-2.17450361747e-15,90.0,0.0316227786243,1,2,120,,,,,,,,,,,,,,,,,,,,,,,,,,,,,,,,,,,,,3841098112,0,13442,12880,9191,12945,7527,0,9210,0,0,3842098112,0,919,1344,1294,1287,0,0,0,0,,,,,,,,,,,,,,,,,,,,,,,,,,,,,,,,,,,,,,,,,,,
3844098.11200000,3844098112,-0.361050337553,0.368682444096,6.28318309784,-0.000428193365224,0.000428193365224,0.000155055793584,,,,,,,,3848098112,0,0,0,0,0,0,0,0,0,,,,,,,,,,,,,,,,,,,,,,,3846098112,0,0,0,0,0,0,0,0,0,,,,,,,,1,0,64,5,4,3,,,,,,,,,,,,,,,,,,,,,,,,,,,,,,,,,,,,,,,,,,,,,,,,,,,,,,,,,,,,,,,,,,,,,,,,,,,,,
3849098.11200000,,,,,,,,,,,,,,,3858098112,0,0,0,0,0,0,0,0,0,,,,,,,,,,,,,,,,,,,,,,,3856098112,0,0,0,0,0,0,0,0,0,3849098112,1014.00952148,0.0,1504,,,,1,0,64,5,4,3,0,0,0,4151,0,0,0,0,0,0,0,0,0,,,,,,,,,,,,,,,,,,,,,,,,,,,,,,,,,,,,,,,,,,,,,,,,,,,,,,,,,,,,,,,,
3859098.11200000,,,,,,,,,,,,,,,,,,,,,,,,,,,,,,,,,,,,,,,,,,,,,,,,,,,,,,,,,3859098112,1014.00952148,0.0,1504,,,,1,0,64,5,4,3,0,0,0,4156,0,0,0,0,0,0,0,0,0,,,,,,,,,,,,,,,,,,,,,,,,,,,,,,,,,,,,,,,,,,,,,,,,,,,,,,,,,,,,,,,,
3861098.11200000,,,,,,,,,,,,,,,3863098112,0,0,0,0,0,0,0,0,0,,,,,,,,,,,,,0.0316227786243,0.00128875242081,0.0,0.399659723043,-2.17300394563e-15,90.0,0.0316227786243,1,2,120,,,,,,,,,,,,,,,,,,,,,,,,,,,,,,,,,,,,,3861098112,0,13445,12881,9192,12945,7528,0,9210,0,0,3862098112,0,919,1344,1294,1288,0,0,0,0,,,,,,,,,,,,,,,,,,,,,,,,,,,,,,,,,,,,,,,,,,,
3864098.11200000,3864098112,-0.361911922693,0.369591772556,6.28318309784,-0.00042870559264,0.00042870559264,0.000155568021,,,,,,,,3868098112,0,0,0,0,0,0,0,0,0,,,,,,,,,,,,,,,,,,,,,,,3866098112,0,0,0,0,0,0,0,0,0,,,,,,,,1,0,64,5,4,3,,,,,,,,,,,,,,,,,,,,,,,,,,,,,,,,,,,,,,,,,,,,,,,,,,,,,,,,,,,,,,,,,,,,,,,,,,,,,
3869098.11200000,,,,,,,,,,,,,,,3878098112,0,0,0,0,0,0,0,0,0,,,,,,,,,,,,,,,,,,,,,,,3876098112,0,0,0,0,0,0,0,0,0,3869098112,1014.00952148,0.0,1504,,,,1,0,64,5,4,3,0,0,0,4157,0,0,0,0,0,0,0,0,0,,,,,,,,,,,,,,,,,,,,,,,,,,,,,,,,,,,,,,,,,,,,,,,,,,,,,,,,,,,,,,,,
3879098.11200000,,,,,,,,,,,,,,,,,,,,,,,,,,,,,,,,,,,,,,,,,,,,,,,,,,,,,,,,,3879098112,1014.00952148,0.0,1504,,,,1,0,64,5,4,3,0,0,0,4150,0,0,0,0,0,0,0,0,0,,,,,,,,,,,,,,,,,,,,,,,,,,,,,,,,,,,,,,,,,,,,,,,,,,,,,,,,,,,,,,,,
3881098.11200000,,,,,,,,,,,,,,,3883098112,0,0,0,0,0,0,0,0,0,,,,,,,,,,,,,0.0316227786243,0.00128875242081,0.0,0.399659723043,-2.16988665263e-15,90.0,0.0316227786243,1,2,120,,,,,,,,,,,,,,,,,,,,,,,,,,,,,,,,,,,,,3881098112,0,13446,12883,9192,12945,7530,0,9210,0,0,3882098112,0,919,1344,1294,1288,0,0,0,0,,,,,,,,,,,,,,,,,,,,,,,,,,,,,,,,,,,,,,,,,,,
3884098.11200000,3884098112,-0.362773835659,0.370501220226,6.28318309784,-0.000429217820056,0.000429217820056,0.000156080248416,,,,,,,,3888098112,0,0,0,0,0,0,0,0,0,,,,,,,,,,,,,,,,,,,,,,,3886098112,0,0,0,0,0,0,0,0,0,,,,,,,,1,0,64,5,4,3,,,,,,,,,,,,,,,,,,,,,,,,,,,,,,,,,,,,,,,,,,,,,,,,,,,,,,,,,,,,,,,,,,,,,,,,,,,,,
3889098.11200000,,,,,,,,,,,,,,,3898098112,0,0,0,0,0,0,0,0,0,,,,,,,,,,,,,,,,,,,,,,,3896098112,0,0,0,0,0,0,0,0,0,3889098112,1014.00952148,0.0,1504,,,,1,0,64,5,4,3,0,0,0,4155,0,0,0,0,0,0,0,0,0,,,,,,,,,,,,,,,,,,,,,,,,,,,,,,,,,,,,,,,,,,,,,,,,,,,,,,,,,,,,,,,,
3899098.11200000,,,,,,,,,,,,,,,,,,,,,,,,,,,,,,,,,,,,,,,,,,,,,,,,,,,,,,,,,3899098112,1014.00952148,0.0,1504,,,,1,0,64,5,4,3,0,0,0,4153,0,0,0,0,0,0,0,0,0,,,,,,,,,,,,,,,,,,,,,,,,,,,,,,,,,,,,,,,,,,,,,,,,,,,,,,,,,,,,,,,,
3901098.11200000,,,,,,,,,,,,,,,3903098112,0,0,0,0,0,0,0,0,0,,,,,,,,,,,,,0.0316227786243,0.00128875242081,0.0,0.399659723043,-2.16551723317e-15,90.0,0.0316227786243,1,2,120,,,,,,,,,,,,,,,,,,,,,,,,,,,,,,,,,,,,,3901098112,0,13444,12881,9193,12945,7528,0,9210,0,0,3902098112,0,919,1344,1294,1288,0,0,0,0,,,,,,,,,,,,,,,,,,,,,,,,,,,,,,,,,,,,,,,,,,,
3904098.11200000,3904098112,-0.363635808229,0.371411651373,6.28318309784,-0.000429730047472,0.000429730047472,0.000156592475832,,,,,,,,3908098112,0,0,0,0,0,0,0,0,0,,,,,,,,,,,,,,,,,,,,,,,3906098112,0,0,0,0,0,0,0,0,0,,,,,,,,1,0,64,5,4,3,,,,,,,,,,,,,,,,,,,,,,,,,,,,,,,,,,,,,,,,,,,,,,,,,,,,,,,,,,,,,,,,,,,,,,,,,,,,,
3909098.11200000,,,,,,,,,,,,,,,3918098112,0,0,0,0,0,0,0,0,0,,,,,,,,,,,,,,,,,,,,,,,3916098112,0,0,0,0,0,0,0,0,0,3909098112,1014.00952148,0.0,1504,,,,1,0,64,5,4,3,0,0,0,4151,0,0,0,0,0,0,0,0,0,,,,,,,,,,,,,,,,,,,,,,,,,,,,,,,,,,,,,,,,,,,,,,,,,,,,,,,,,,,,,,,,
3919098.11200000,,,,,,,,,,,,,,,,,,,,,,,,,,,,,,,,,,,,,,,,,,,,,,,,,,,,,,,,,3919098112,1014.00952148,0.0,1504,,,,1,0,64,5,4,3,0,0,0,4149,0,0,0,0,0,0,0,0,0,,,,,,,,,,,,,,,,,,,,,,,,,,,,,,,,,,,,,,,,,,,,,,,,,,,,,,,,,,,,,,,,
3921098.11200000,,,,,,,,,,,,,,,3923098112,0,0,0,0,0,0,0,0,0,,,,,,,,,,,,,0.0316227786243,0.00128875242081,0.0,0.399659723043,-2.15982263067e-15,90.0,0.0316227786243,1,2,120,,,,,,,,,,,,,,,,,,,,,,,,,,,,,,,,,,,,,3921098112,0,13447,12883,9192,12945,7529,0,9210,0,0,3922098112,0,919,1344,1294,1288,0,0,0,0,,,,,,,,,,,,,,,,,,,,,,,,,,,,,,,,,,,,,,,,,,,
3924098.11200000,3924098112,-0.364497900009,0.372327327728,6.28318309784,-0.000430242274888,0.000430242274888,0.000157104703248,,,,,,,,3928098112,0,0,0,0,0,0,0,0,0,,,,,,,,,,,,,,,,,,,,,,,3926098112,0,0,0,0,0,0,0,0,0,,,,,,,,1,0,64,5,4,3,,,,,,,,,,,,,,,,,,,,,,,,,,,,,,,,,,,,,,,,,,,,,,,,,,,,,,,,,,,,,,,,,,,,,,,,,,,,,
3929098.11200000,,,,,,,,,,,,,,,3938098112,0,0,0,0,0,0,0,0,0,,,,,,,,,,,,,,,,,,,,,,,3936098112,0,0,0,0,0,0,0,0,0,3929098112,1014.00952148,0.0,1504,,,,1,0,64,5,4,3,0,0,0,4158,0,0,0,0,0,0,0,0,0,,,,,,,,,,,,,,,,,,,,,,,,,,,,,,,,,,,,,,,,,,,,,,,,,,,,,,,,,,,,,,,,
3939098.11200000,,,,,,,,,,,,,,,,,,,,,,,,,,,,,,,,,,,,,,,,,,,,,,,,,,,,,,,,,3939098112,1014.00952148,0.0,1504,,,,1,0,64,5,4,3,0,0,0,4152,0,0,0,0,0,0,0,0,0,,,,,,,,,,,,,,,,,,,,,,,,,,,,,,,,,,,,,,,,,,,,,,,,,,,,,,,,,,,,,,,,
3941098.11200000,,,,,,,,,,,,,,,3943098112,0,0,0,0,0,0,0,0,0,,,,,,,,,,,,,0.0316227786243,0.00128875242081,0.0,0.399659723043,-2.16201856358e-15,90.0,0.0316227786243,1,2,120,,,,,,,,,,,,,,,,,,,,,,,,,,,,,,,,,,,,,3941098112,0,13445,12883,9192,12945,7529,0,9210,0,0,3942098112,0,919,1344,1294,1288,0,0,0,0,,,,,,,,,,,,,,,,,,,,,,,,,,,,,,,,,,,,,,,,,,,
3944098.11200000,3944098112,-0.365360826254,0.373243838549,6.28318309784,-0.000430754502304,0.000430754502304,0.000157616930665,,,,,,,,3948098112,0,0,0,0,0,0,0,0,0,,,,,,,,,,,,,,,,,,,,,,,3946098112,0,0,0,0,0,0,0,0,0,,,,,,,,1,0,64,5,4,3,,,,,,,,,,,,,,,,,,,,,,,,,,,,,,,,,,,,,,,,,,,,,,,,,,,,,,,,,,,,,,,,,,,,,,,,,,,,,
3949098.11200000,,,,,,,,,,,,,,,3958098112,0,0,0,0,0,0,0,0,0,,,,,,,,,,,,,,,,,,,,,,,3956098112,0,0,0,0,0,0,0,0,0,3949098112,1014.00952148,0.0,1504,,,,1,0,64,5,4,3,0,0,0,4154,0,0,0,0,0,0,0,0,0,,,,,,,,,,,,,,,,,,,,,,,,,,,,,,,,,,,,,,,,,,,,,,,,,,,,,,,,,,,,,,,,
3959098.11200000,,,,,,,,,,,,,,,,,,,,,,,,,,,,,,,,,,,,,,,,,,,,,,,,,,,,,,,,,3959098112,1014.00952148,0.0,1504,,,,1,0,64,5,4,3,0,0,0,4156,0,0,0,0,0,0,0,0,0,,,,,,,,,,,,,,,,,,,,,,,,,,,,,,,,,,,,,,,,,,,,,,,,,,,,,,,,,,,,,,,,
3961098.11200000,,,,,,,,,,,,,,,3963098112,0,0,0,0,0,0,0,0,0,,,,,,,,,,,,,0.0316227786243,0.00128875242081,0.0,0.399659723043,-2.16183263985e-15,90.0,0.0316227786243,1,2,120,,,,,,,,,,,,,,,,,,,,,,,,,,,,,,,,,,,,,3961098112,0,13446,12884,9192,12946,7529,0,9210,0,0,3962098112,0,919,1344,1294,1288,0,0,0,0,,,,,,,,,,,,,,,,,,,,,,,,,,,,,,,,,,,,,,,,,,,
3964098.11200000,3964098112,-0.366227656603,0.374164372683,6.28318309784,-0.00043126672972,0.00043126672972,0.000158129158081,,,,,,,,3968098112,0,0,0,0,0,0,0,0,0,,,,,,,,,,,,,,,,,,,,,,,3966098112,0,0,0,0,0,0,0,0,0,,,,,,,,1,0,64,5,4,3,,,,,,,,,,,,,,,,,,,,,,,,,,,,,,,,,,,,,,,,,,,,,,,,,,,,,,,,,,,,,,,,,,,,,,,,,,,,,
3969098.11200000,,,,,,,,,,,,,,,3978098112,0,0,0,0,0,0,0,0,0,,,,,,,,,,,,,,,,,,,,,,,3976098112,0,0,0,0,0,0,0,0,0,3969098112,1014.00952148,0.0,1504,,,,1,0,64,5,4,3,0,0,0,4152,0,0,0,0,0,0,0,0,0,,,,,,,,,,,,,,,,,,,,,,,,,,,,,,,,,,,,,,,,,,,,,,,,,,,,,,,,,,,,,,,,
3979098.11200000,,,,,,,,,,,,,,,,,,,,,,,,,,,,,,,,,,,,,,,,,,,,,,,,,,,,,,,,,3979098112,1014.00952148,0.0,1504,,,,1,0,64,5,4,3,0,0,0,4155,0,0,0,0,0,0,0,0,0,,,,,,,,,,,,,,,,,,,,,,,,,,,,,,,,,,,,,,,,,,,,,,,,,,,,,,,,,,,,,,,,
3981098.11200000,,,,,,,,,,,,,,,3983098112,0,0,0,0,0,0,0,0,0,,,,,,,,,,,,,0.0316227786243,0.00128875242081,0.0,0.399659723043,-2.18165066972e-15,90.0,0.0316227786243,1,2,120,,,,,,,,,,,,,,,,,,,,,,,,,,,,,,,,,,,,,3981098112,0,13446,12881,9192,12947,7528,0,9210,0,0,3982098112,0,919,1344,1294,1288,0,0,0,0,,,,,,,,,,,,,,,,,,,,,,,,,,,,,,,,,,,,,,,,,,,
3984098.11200000,3984098112,-0.367097139359,0.375084936619,6.28318309784,-0.000431778957136,0.000431778957136,0.000158641385497,,,,,,,,3988098112,0,0,0,0,0,0,0,0,0,,,,,,,,,,,,,,,,,,,,,,,3986098112,0,0,0,0,0,0,0,0,0,,,,,,,,1,0,64,5,4,3,,,,,,,,,,,,,,,,,,,,,,,,,,,,,,,,,,,,,,,,,,,,,,,,,,,,,,,,,,,,,,,,,,,,,,,,,,,,,
3989098.11200000,,,,,,,,,,,,,,,3998098112,0,0,0,0,0,0,0,0,0,,,,,,,,,,,,,,,,,,,,,,,3996098112,0,0,0,0,0,0,0,0,0,3989098112,1014.00952148,0.0,1504,,,,1,0,64,5,4,3,0,0,0,4152,0,0,0,0,0,0,0,0,0,,,,,,,,,,,,,,,,,,,,,,,,,,,,,,,,,,,,,,,,,,,,,,,,,,,,,,,,,,,,,,,,
3999098.11200000,,,,,,,,,,,,,,,,,,,,,,,,,,,,,,,,,,,,,,,,,,,,,,,,,,,,,,,,,3999098112,1014.00952148,0.0,1504,,,,1,0,64,5,4,3,0,0,0,4152,0,0,0,0,0,0,0,0,0,,,,,,,,,,,,,,,,,,,,,,,,,,,,,,,,,,,,,,,,,,,,,,,,,,,,,,,,,,,,,,,,
4001098.11200000,,,,,,,,,,,,,,,4003098112,0,0,0,0,0,0,0,0,0,,,,,,,,,,,,,0.0316227786243,0.00128875242081,0.0,0.399659723043,-2.17797920541e-15,90.0,0.0316227786243,1,2,120,,,,,,,,,,,,,,,,,,,,,,,,,,,,,,,,,,,,,4001098112,0,13447,12880,9191,12944,7528,0,9210,0,0,4002098112,0,919,1344,1294,1288,0,0,0,0,,,,,,,,,,,,,,,,,,,,,,,,,,,,,,,,,,,,,,,,,,,
4004098.11200000,4004098112,-0.367970168591,0.376005798578,6.28318309784,-0.000432291184552,0.000432291184552,0.000159153612913,,,,,,,,4008098112,0,0,0,0,0,0,0,0,0,,,,,,,,,,,,,,,,,,,,,,,4006098112,0,0,0,0,0,0,0,0,0,,,,,,,,1,0,64,5,4,3,,,,,,,,,,,,,,,,,,,,,,,,,,,,,,,,,,,,,,,,,,,,,,,,,,,,,,,,,,,,,,,,,,,,,,,,,,,,,
4009098.11200000,,,,,,,,,,,,,,,4018098112,0,0,0,0,0,0,0,0,0,,,,,,,,,,,,,,,,,,,,,,,4016098112,0,0,0,0,0,0,0,0,0,4009098112,1014.00952148,0.0,1504,,,,1,0,64,5,4,3,0,0,0,4158,0,0,0,0,0,0,0,0,0,,,,,,,,,,,,,,,,,,,,,,,,,,,,,,,,,,,,,,,,,,,,,,,,,,,,,,,,,,,,,,,,
4019098.11200000,,,,,,,,,,,,,,,,,,,,,,,,,,,,,,,,,,,,,,,,,,,,,,,,,,,,,,,,,4019098112,1014.00952148,0.0,1504,,,,1,0,64,5,4,3,0,0,0,4154,0,0,0,0,0,0,0,0,0,,,,,,,,,,,,,,,,,,,,,,,,,,,,,,,,,,,,,,,,,,,,,,,,,,,,,,,,,,,,,,,,
4021098.11200000,,,,,,,,,,,,,,,4023098112,0,0,0,0,0,0,0,0,0,,,,,,,,,,,,,0.0316227786243,0.00128875242081,0.0,0.399659723043,-2.17268906113e-15,90.0,0.0316227786243,1,2,120,,,,,,,,,,,,,,,,,,,,,,,,,,,,,,,,,,,,,4021098112,0,13442,12882,9192,12946,7528,0,9210,0,0,4022098112,0,919,1344,1294,1288,0,0,0,0,,,,,,,,,,,,,,,,,,,,,,,,,,,,,,,,,,,,,,,,,,,
4024098.11200000,4024098112,-0.368843436241,0.376926720142,6.28318309784,-0.000432803411968,0.000432803411968,0.000159665840329,,,,,,,,4028098112,0,0,0,0,0,0,0,0,0,,,,,,,,,,,,,,,,,,,,,,,4026098112,0,0,0,0,0,0,0,0,0,,,,,,,,1,0,64,5,4,3,,,,,,,,,,,,,,,,,,,,,,,,,,,,,,,,,,,,,,,,,,,,,,,,,,,,,,,,,,,,,,,,,,,,,,,,,,,,,
4029098.11200000,,,,,,,,,,,,,,,4038098112,0,0,0,0,0,0,0,0,0,,,,,,,,,,,,,,,,,,,,,,,4036098112,0,0,0,0,0,0,0,0,0,4029098112,1014.00952148,0.0,1504,,,,1,0,64,5,4,3,0,0,0,4153,0,0,0,0,0,0,0,0,0,,,,,,,,,,,,,,,,,,,,,,,,,,,,,,,,,,,,,,,,,,,,,,,,,,,,,,,,,,,,,,,,
4039098.11200000,,,,,,,,,,,,,,,,,,,,,,,,,,,,,,,,,,,,,,,,,,,,,,,,,,,,,,,,,4039098112,1014.00952148,0.0,1504,,,,1,0,64,5,4,3,0,0,0,4154,0,0,0,0,0,0,0,0,0,,,,,,,,,,,,,,,,,,,,,,,,,,,,,,,,,,,,,,,,,,,,,,,,,,,,,,,,,,,,,,,,
4041098.11200000,,,,,,,,,,,,,,,4043098112,0,0,0,0,0,0,0,0,0,,,,,,,,,,,,,0.0316227786243,0.00128875242081,0.0,0.399659723043,-2.16561421844e-15,90.0,0.0316227786243,1,2,120,,,,,,,,,,,,,,,,,,,,,,,,,,,,,,,,,,,,,4041098112,0,13447,12884,9193,12946,7529,0,9210,0,0,4042098112,0,919,1344,1294,1288,0,0,0,0,,,,,,,,,,,,,,,,,,,,,,,,,,,,,,,,,,,,,,,,,,,
4044098.11200000,4044098112,-0.369716882706,0.377851217985,6.283182621,-0.000433315639384,0.000433315639384,0.000160178067745,,,,,,,,4048098112,0,0,0,0,0,0,0,0,0,,,,,,,,,,,,,,,,,,,,,,,4046098112,0,0,0,0,0,0,0,0,0,,,,,,,,1,0,64,5,4,3,,,,,,,,,,,,,,,,,,,,,,,,,,,,,,,,,,,,,,,,,,,,,,,,,,,,,,,,,,,,,,,,,,,,,,,,,,,,,
4049098.11200000,,,,,,,,,,,,,,,4058098112,0,0,0,0,0,0,0,0,0,,,,,,,,,,,,,,,,,,,,,,,4056098112,0,0,0,0,0,0,0,0,0,4049098112,1014.00952148,0.0,1504,,,,1,0,64,5,4,3,0,0,0,4151,0,0,0,0,0,0,0,0,0,,,,,,,,,,,,,,,,,,,,,,,,,,,,,,,,,,,,,,,,,,,,,,,,,,,,,,,,,,,,,,,,
4059098.11200000,,,,,,,,,,,,,,,,,,,,,,,,,,,,,,,,,,,,,,,,,,,,,,,,,,,,,,,,,4059098112,1014.00952148,0.0,1504,,,,1,0,64,5,4,3,0,0,0,4155,0,0,0,0,0,0,0,0,0,,,,,,,,,,,,,,,,,,,,,,,,,,,,,,,,,,,,,,,,,,,,,,,,,,,,,,,,,,,,,,,,
4061098.11200000,,,,,,,,,,,,,,,4063098112,0,0,0,0,0,0,0,0,0,,,,,,,,,,,,,0.0316227786243,0.00128875242081,0.0,0.399659723043,-2.16246833808e-15,90.0,0.0316227786243,1,2,120,,,,,,,,,,,,,,,,,,,,,,,,,,,,,,,,,,,,,4061098112,0,13446,12882,9193,12946,7528,0,9210,0,0,4062098112,0,919,1344,1294,1288,0,0,0,0,,,,,,,,,,,,,,,,,,,,,,,,,,,,,,,,,,,,,,,,,,,
4064098.11200000,4064098112,-0.370590478182,0.378778487444,6.28318309784,-0.0004338278668,0.0004338278668,0.000160690295161,,,,,,,,4068098112,0,0,0,0,0,0,0,0,0,,,,,,,,,,,,,,,,,,,,,,,4066098112,0,0,0,0,0,0,0,0,0,,,,,,,,1,0,64,5,4,3,,,,,,,,,,,,,,,,,,,,,,,,,,,,,,,,,,,,,,,,,,,,,,,,,,,,,,,,,,,,,,,,,,,,,,,,,,,,,
4069098.11200000,,,,,,,,,,,,,,,4078098112,0,0,0,0,0,0,0,0,0,,,,,,,,,,,,,,,,,,,,,,,4076098112,0,0,0,0,0,0,0,0,0,4069098112,1014.00952148,0.0,1504,,,,1,0,64,5,4,3,0,0,0,4155,0,0,0,0,0,0,0,0,0,,,,,,,,,,,,,,,,,,,,,,,,,,,,,,,,,,,,,,,,,,,,,,,,,,,,,,,,,,,,,,,,
4079098.11200000,,,,,,,,,,,,,,,,,,,,,,,,,,,,,,,,,,,,,,,,,,,,,,,,,,,,,,,,,4079098112,1014.00952148,0.0,1504,,,,1,0,64,5,4,3,0,0,0,4159,0,0,0,0,0,0,0,0,0,,,,,,,,,,,,,,,,,,,,,,,,,,,,,,,,,,,,,,,,,,,,,,,,,,,,,,,,,,,,,,,,
4081098.11200000,,,,,,,,,,,,,,,4083098112,0,0,0,0,0,0,0,0,0,,,,,,,,,,,,,0.0316227786243,0.00128875242081,0.0,0.399659723043,-2.15577381318e-15,90.0,0.0316227786243,1,2,120,,,,,,,,,,,,,,,,,,,,,,,,,,,,,,,,,,,,,4081098112,0,13448,12883,9194,12947,7529,0,9210,0,0,4082098112,0,919,1344,1294,1288,0,0,0,0,,,,,,,,,,,,,,,,,,,,,,,,,,,,,,,,,,,,,,,,,,,
4084098.11200000,4084098112,-0.371464192867,0.379705816507,6.283182621,-0.000434340094216,0.000434340094216,0.000161202522577,,,,,,,,4088098112,0,0,0,0,0,0,0,0,0,,,,,,,,,,,,,,,,,,,,,,,4086098112,0,0,0,0,0,0,0,0,0,,,,,,,,1,0,64,5,4,3,,,,,,,,,,,,,,,,,,,,,,,,,,,,,,,,,,,,,,,,,,,,,,,,,,,,,,,,,,,,,,,,,,,,,,,,,,,,,
4089098.11200000,,,,,,,,,,,,,,,4098098112,0,0,0,0,0,0,0,0,0,,,,,,,,,,,,,,,,,,,,,,,4096098112,0,0,0,0,0,0,0,0,0,4089098112,1014.00952148,0.0,1504,,,,1,0,64,5,4,3,0,0,0,4144,0,0,0,0,0,0,0,0,0,,,,,,,,,,,,,,,,,,,,,,,,,,,,,,,,,,,,,,,,,,,,,,,,,,,,,,,,,,,,,,,,
4099098.11200000,,,,,,,,,,,,,,,,,,,,,,,,,,,,,,,,,,,,,,,,,,,,,,,,,,,,,,,,,4099098112,1014.00952148,0.0,1504,,,,1,0,64,5,4,3,0,0,0,4191,0,0,0,0,0,0,0,0,0,,,,,,,,,,,,,,,,,,,,,,,,,,,,,,,,,,,,,,,,,,,,,,,,,,,,,,,,,,,,,,,,
4101098.11200000,,,,,,,,,,,,,,,4103098112,0,0,0,0,0,0,0,0,0,,,,,,,,,,,,,0.0316227786243,0.00128875242081,0.0,0.399659723043,-2.15979785495e-15,90.0,0.0316227786243,1,2,120,,,,,,,,,,,,,,,,,,,,,,,,,,,,,,,,,,,,,4101098112,0,13448,12881,9192,12946,7528,0,9210,0,0,4102098112,0,919,1344,1294,1288,0,0,0,0,,,,,,,,,,,,,,,,,,,,,,,,,,,,,,,,,,,,,,,,,,,
4104098.11200000,4104098112,-0.37233799696,0.380633354187,6.28318309784,-0.000434852321632,0.000434852321632,0.000161714749993,,,,,,,,4108098112,0,0,0,0,0,0,0,0,0,,,,,,,,,,,,,,,,,,,,,,,4106098112,0,0,0,0,0,0,0,0,0,,,,,,,,1,0,64,5,4,3,,,,,,,,,,,,,,,,,,,,,,,,,,,,,,,,,,,,,,,,,,,,,,,,,,,,,,,,,,,,,,,,,,,,,,,,,,,,,
4109098.11200000,,,,,,,,,,,,,,,4118098112,0,0,0,0,0,0,0,0,0,,,,,,,,,,,,,,,,,,,,,,,4116098112,0,0,0,0,0,0,0,0,0,4109098112,1014.00952148,0.0,1504,,,,1,0,64,5,4,3,0,0,0,4152,0,0,0,0,0,0,0,0,0,,,,,,,,,,,,,,,,,,,,,,,,,,,,,,,,,,,,,,,,,,,,,,,,,,,,,,,,,,,,,,,,
4119098.11200000,,,,,,,,,,,,,,,,,,,,,,,,,,,,,,,,,,,,,,,,,,,,,,,,,,,,,,,,,4119098112,1014.00952148,0.0,1504,,,,1,0,64,5,4,3,0,0,0,4149,0,0,0,0,0,0,0,0,0,,,,,,,,,,,,,,,,,,,,,,,,,,,,,,,,,,,,,,,,,,,,,,,,,,,,,,,,,,,,,,,,
4121098.11200000,,,,,,,,,,,,,,,4123098112,0,0,0,0,0,0,0,0,0,,,,,,,,,,,,,0.0316227786243,0.00128875242081,0.0,0.399659723043,-2.15289898336e-15,90.0,0.0316227786243,1,2,120,,,,,,,,,,,,,,,,,,,,,,,,,,,,,,,,,,,,,4121098112,0,13447,12882,9193,12946,7529,0,9210,0,0,4122098112,0,919,1344,1294,1288,0,0,0,0,,,,,,,,,,,,,,,,,,,,,,,,,,,,,,,,,,,,,,,,,,,
4124098.11200000,4124098112,-0.373212039471,0.381561040878,6.28318309784,-0.000435364549048,0.000435364549048,0.000162226977409,,,,,,,,4128098112,0,0,0,0,0,0,0,0,0,,,,,,,,,,,,,,,,,,,,,,,4126098112,0,0,0,0,0,0,0,0,0,,,,,,,,1,0,64,5,4,3,,,,,,,,,,,,,,,,,,,,,,,,,,,,,,,,,,,,,,,,,,,,,,,,,,,,,,,,,,,,,,,,,,,,,,,,,,,,,
4129098.11200000,,,,,,,,,,,,,,,4138098112,0,0,0,0,0,0,0,0,0,,,,,,,,,,,,,,,,,,,,,,,4136098112,0,0,0,0,0,0,0,0,0,4129098112,1014.00952148,0.0,1504,,,,1,0,64,5,4,3,0,0,0,4151,0,0,0,0,0,0,0,0,0,,,,,,,,,,,,,,,,,,,,,,,,,,,,,,,,,,,,,,,,,,,,,,,,,,,,,,,,,,,,,,,,
4139098.11200000,,,,,,,,,,,,,,,,,,,,,,,,,,,,,,,,,,,,,,,,,,,,,,,,,,,,,,,,,4139098112,1014.00952148,0.0,1504,,,,1,0,64,5,4,3,0,0,0,4147,0,0,0,0,0,0,0,0,0,,,,,,,,,,,,,,,,,,,,,,,,,,,,,,,,,,,,,,,,,,,,,,,,,,,,,,,,,,,,,,,,
4141098.11200000,,,,,,,,,,,,,,,4143098112,0,0,0,0,0,0,0,0,0,,,,,,,,,,,,,0.0316227786243,0.00128875242081,0.0,0.399659723043,-2.1695774856e-15,90.0,0.0316227786243,1,2,120,,,,,,,,,,,,,,,,,,,,,,,,,,,,,,,,,,,,,4141098112,0,13445,12881,9192,12945,7528,0,9210,0,0,4142098112,0,919,1344,1294,1288,0,0,0,0,,,,,,,,,,,,,,,,,,,,,,,,,,,,,,,,,,,,,,,,,,,
4144098.11200000,4144098112,-0.37408798933,0.382488816977,6.283182621,-0.000435876776464,0.000435876776464,0.000162739204825,,,,,,,,4148098112,0,0,0,0,0,0,0,0,0,,,,,,,,,,,,,,,,,,,,,,,4146098112,0,0,0,0,0,0,0,0,0,,,,,,,,1,0,64,5,4,3,,,,,,,,,,,,,,,,,,,,,,,,,,,,,,,,,,,,,,,,,,,,,,,,,,,,,,,,,,,,,,,,,,,,,,,,,,,,,
4149098.11200000,,,,,,,,,,,,,,,4158098112,0,0,0,0,0,0,0,0,0,,,,,,,,,,,,,,,,,,,,,,,4156098112,0,0,0,0,0,0,0,0,0,4149098112,1014.00952148,0.0,1504,,,,1,0,64,5,4,3,0,0,0,4155,0,0,0,0,0,0,0,0,0,,,,,,,,,,,,,,,,,,,,,,,,,,,,,,,,,,,,,,,,,,,,,,,,,,,,,,,,,,,,,,,,
4159098.11200000,,,,,,,,,,,,,,,,,,,,,,,,,,,,,,,,,,,,,,,,,,,,,,,,,,,,,,,,,4159098112,1014.00952148,0.0,1504,,,,1,0,64,5,4,3,0,0,0,4148,0,0,0,0,0,0,0,0,0,,,,,,,,,,,,,,,,,,,,,,,,,,,,,,,,,,,,,,,,,,,,,,,,,,,,,,,,,,,,,,,,
4161098.11200000,,,,,,,,,,,,,,,4163098112,0,0,0,0,0,0,0,0,0,,,,,,,,,,,,,0.0316227786243,0.00128875242081,0.0,0.399659723043,-2.1651657145e-15,90.0,0.0316227786243,1,2,120,,,,,,,,,,,,,,,,,,,,,,,,,,,,,,,,,,,,,4161098112,0,13448,12881,9192,12946,7528,0,9210,0,0,4162098112,0,919,1344,1294,1288,0,0,0,0,,,,,,,,,,,,,,,,,,,,,,,,,,,,,,,,,,,,,,,,,,,
4164098.11200000,4164098112,-0.374968379736,0.383418053389,6.283182621,-0.00043638900388,0.00043638900388,0.000163251432241,,,,,,,,4168098112,0,0,0,0,0,0,0,0,0,,,,,,,,,,,,,,,,,,,,,,,4166098112,0,0,0,0,0,0,0,0,0,,,,,,,,1,0,64,5,4,3,,,,,,,,,,,,,,,,,,,,,,,,,,,,,,,,,,,,,,,,,,,,,,,,,,,,,,,,,,,,,,,,,,,,,,,,,,,,,
4169098.11200000,,,,,,,,,,,,,,,4178098112,0,0,0,0,0,0,0,0,0,,,,,,,,,,,,,,,,,,,,,,,4176098112,0,0,0,0,0,0,0,0,0,4169098112,1014.00952148,0.0,1504,,,,1,0,64,5,4,3,0,0,0,4163,0,0,0,0,0,0,0,0,0,,,,,,,,,,,,,,,,,,,,,,,,,,,,,,,,,,,,,,,,,,,,,,,,,,,,,,,,,,,,,,,,
4179098.11200000,,,,,,,,,,,,,,,,,,,,,,,,,,,,,,,,,,,,,,,,,,,,,,,,,,,,,,,,,4179098112,1014.00952148,0.0,1504,,,,1,0,64,5,4,3,0,0,0,4154,0,0,0,0,0,0,0,0,0,,,,,,,,,,,,,,,,,,,,,,,,,,,,,,,,,,,,,,,,,,,,,,,,,,,,,,,,,,,,,,,,
4181098.11200000,,,,,,,,,,,,,,,4183098112,0,0,0,0,0,0,0,0,0,,,,,,,,,,,,,0.0316227786243,0.00128875242081,0.0,0.399659723043,-2.16262249807e-15,90.0,0.0316227786243,1,2,120,,,,,,,,,,,,,,,,,,,,,,,,,,,,,,,,,,,,,4181098112,0,13448,12881,9193,12947,7528,0,9210,0,0,4182098112,0,919,1344,1294,1288,0,0,0,0,,,,,,,,,,,,,,,,,,,,,,,,,,,,,,,,,,,,,,,,,,,
4184098.11200000,4184098112,-0.375848859549,0.384352117777,6.283182621,-0.000436901231296,0.000436901231296,0.000163763659657,,,,,,,,4188098112,0,0,0,0,0,0,0,0,0,,,,,,,,,,,,,,,,,,,,,,,4186098112,0,0,0,0,0,0,0,0,0,,,,,,,,1,0,64,5,4,3,,,,,,,,,,,,,,,,,,,,,,,,,,,,,,,,,,,,,,,,,,,,,,,,,,,,,,,,,,,,,,,,,,,,,,,,,,,,,
4189098.11200000,,,,,,,,,,,,,,,4198098112,0,0,0,0,0,0,0,0,0,,,,,,,,,,,,,,,,,,,,,,,4196098112,0,0,0,0,0,0,0,0,0,4189098112,1014.00952148,0.0,1504,,,,1,0,64,5,4,3,0,0,0,4154,0,0,0,0,0,0,0,0,0,,,,,,,,,,,,,,,,,,,,,,,,,,,,,,,,,,,,,,,,,,,,,,,,,,,,,,,,,,,,,,,,
4199098.11200000,,,,,,,,,,,,,,,,,,,,,,,,,,,,,,,,,,,,,,,,,,,,,,,,,,,,,,,,,4199098112,1014.00952148,0.0,1504,,,,1,0,64,5,4,3,0,0,0,4150,0,0,0,0,0,0,0,0,0,,,,,,,,,,,,,,,,,,,,,,,,,,,,,,,,,,,,,,,,,,,,,,,,,,,,,,,,,,,,,,,,
4201098.11200000,,,,,,,,,,,,,,,4203098112,0,0,0,0,0,0,0,0,0,,,,,,,,,,,,,0.0316227786243,0.00128875242081,0.0,0.399659723043,-2.15517072572e-15,90.0,0.0316227786243,1,2,120,,,,,,,,,,,,,,,,,,,,,,,,,,,,,,,,,,,,,4201098112,0,13447,12881,9192,12946,7528,0,9210,0,0,4202098112,0,919,1344,1294,1288,0,0,0,0,,,,,,,,,,,,,,,,,,,,,,,,,,,,,,,,,,,,,,,,,,,
4204098.11200000,4204098112,-0.376729547977,0.385286360979,6.283182621,-0.000437413458712,0.000437413458712,0.000164275887073,,,,,,,,4208098112,0,0,0,0,0,0,0,0,0,,,,,,,,,,,,,,,,,,,,,,,4206098112,0,0,0,0,0,0,0,0,0,,,,,,,,1,0,64,5,4,3,,,,,,,,,,,,,,,,,,,,,,,,,,,,,,,,,,,,,,,,,,,,,,,,,,,,,,,,,,,,,,,,,,,,,,,,,,,,,
4209098.11200000,,,,,,,,,,,,,,,4218098112,0,0,0,0,0,0,0,0,0,,,,,,,,,,,,,,,,,,,,,,,4216098112,0,0,0,0,0,0,0,0,0,4209098112,1014.00952148,0.0,1504,,,,1,0,64,5,4,3,0,0,0,4156,0,0,0,0,0,0,0,0,0,,,,,,,,,,,,,,,,,,,,,,,,,,,,,,,,,,,,,,,,,,,,,,,,,,,,,,,,,,,,,,,,
4219098.11200000,,,,,,,,,,,,,,,,,,,,,,,,,,,,,,,,,,,,,,,,,,,,,,,,,,,,,,,,,4219098112,1014.00952148,0.0,1504,,,,1,0,64,5,4,3,0,0,0,4151,0,0,0,0,0,0,0,0,0,,,,,,,,,,,,,,,,,,,,,,,,,,,,,,,,,,,,,,,,,,,,,,,,,,,,,,,,,,,,,,,,
